$GPGGA,143318.798,4812.544,N,01714.915,E,1,12,1.0,0.0,M,0.0,M,,*60
$GPGSA,A,3,01,02,03,04,05,06,07,08,09,10,11,12,1.0,1.0,1.0*30
$GPRMC,143318.798,A,4812.544,N,01714.915,E,048.6,066.3,261124,000.0,W*7F
$GPGGA,143319.798,4812.550,N,01714.934,E,1,12,1.0,0.0,M,0.0,M,,*67
$GPGSA,A,3,01,02,03,04,05,06,07,08,09,10,11,12,1.0,1.0,1.0*30
$GPRMC,143319.798,A,4812.550,N,01714.934,E,048.6,066.3,261124,000.0,W*78
$GPGGA,143320.798,4812.555,N,01714.953,E,1,12,1.0,0.0,M,0.0,M,,*69
$GPGSA,A,3,01,02,03,04,05,06,07,08,09,10,11,12,1.0,1.0,1.0*30
$GPRMC,143320.798,A,4812.555,N,01714.953,E,048.6,066.3,261124,000.0,W*76
$GPGGA,143321.798,4812.560,N,01714.971,E,1,12,1.0,0.0,M,0.0,M,,*6E
$GPGSA,A,3,01,02,03,04,05,06,07,08,09,10,11,12,1.0,1.0,1.0*30
$GPRMC,143321.798,A,4812.560,N,01714.971,E,048.6,066.3,261124,000.0,W*71
$GPGGA,143322.798,4812.566,N,01714.990,E,1,12,1.0,0.0,M,0.0,M,,*64
$GPGSA,A,3,01,02,03,04,05,06,07,08,09,10,11,12,1.0,1.0,1.0*30
$GPRMC,143322.798,A,4812.566,N,01714.990,E,048.6,066.3,261124,000.0,W*7B
$GPGGA,143323.798,4812.571,N,01715.008,E,1,12,1.0,0.0,M,0.0,M,,*6A
$GPGSA,A,3,01,02,03,04,05,06,07,08,09,10,11,12,1.0,1.0,1.0*30
$GPRMC,143323.798,A,4812.571,N,01715.008,E,048.6,066.3,261124,000.0,W*75
$GPGGA,143324.798,4812.577,N,01715.027,E,1,12,1.0,0.0,M,0.0,M,,*66
$GPGSA,A,3,01,02,03,04,05,06,07,08,09,10,11,12,1.0,1.0,1.0*30
$GPRMC,143324.798,A,4812.577,N,01715.027,E,048.6,066.3,261124,000.0,W*79
$GPGGA,143325.798,4812.582,N,01715.045,E,1,12,1.0,0.0,M,0.0,M,,*69
$GPGSA,A,3,01,02,03,04,05,06,07,08,09,10,11,12,1.0,1.0,1.0*30
$GPRMC,143325.798,A,4812.582,N,01715.045,E,048.6,066.3,261124,000.0,W*76
$GPGGA,143326.798,4812.588,N,01715.064,E,1,12,1.0,0.0,M,0.0,M,,*63
$GPGSA,A,3,01,02,03,04,05,06,07,08,09,10,11,12,1.0,1.0,1.0*30
$GPRMC,143326.798,A,4812.588,N,01715.064,E,048.6,066.3,261124,000.0,W*7C
$GPGGA,143327.798,4812.593,N,01715.082,E,1,12,1.0,0.0,M,0.0,M,,*60
$GPGSA,A,3,01,02,03,04,05,06,07,08,09,10,11,12,1.0,1.0,1.0*30
$GPRMC,143327.798,A,4812.593,N,01715.082,E,048.6,066.3,261124,000.0,W*7F
$GPGGA,143328.798,4812.598,N,01715.101,E,1,12,1.0,0.0,M,0.0,M,,*6E
$GPGSA,A,3,01,02,03,04,05,06,07,08,09,10,11,12,1.0,1.0,1.0*30
$GPRMC,143328.798,A,4812.598,N,01715.101,E,048.6,066.3,261124,000.0,W*71
$GPGGA,143329.798,4812.604,N,01715.119,E,1,12,1.0,0.0,M,0.0,M,,*60
$GPGSA,A,3,01,02,03,04,05,06,07,08,09,10,11,12,1.0,1.0,1.0*30
$GPRMC,143329.798,A,4812.604,N,01715.119,E,048.6,066.3,261124,000.0,W*7F
$GPGGA,143330.798,4812.609,N,01715.138,E,1,12,1.0,0.0,M,0.0,M,,*66
$GPGSA,A,3,01,02,03,04,05,06,07,08,09,10,11,12,1.0,1.0,1.0*30
$GPRMC,143330.798,A,4812.609,N,01715.138,E,048.6,066.3,261124,000.0,W*79
$GPGGA,143331.798,4812.615,N,01715.156,E,1,12,1.0,0.0,M,0.0,M,,*62
$GPGSA,A,3,01,02,03,04,05,06,07,08,09,10,11,12,1.0,1.0,1.0*30
$GPRMC,143331.798,A,4812.615,N,01715.156,E,048.6,066.3,261124,000.0,W*7D
$GPGGA,143332.798,4812.620,N,01715.175,E,1,12,1.0,0.0,M,0.0,M,,*66
$GPGSA,A,3,01,02,03,04,05,06,07,08,09,10,11,12,1.0,1.0,1.0*30
$GPRMC,143332.798,A,4812.620,N,01715.175,E,048.6,066.3,261124,000.0,W*79
$GPGGA,143333.798,4812.625,N,01715.194,E,1,12,1.0,0.0,M,0.0,M,,*6D
$GPGSA,A,3,01,02,03,04,05,06,07,08,09,10,11,12,1.0,1.0,1.0*30
$GPRMC,143333.798,A,4812.625,N,01715.194,E,048.6,066.3,261124,000.0,W*72
$GPGGA,143334.798,4812.631,N,01715.212,E,1,12,1.0,0.0,M,0.0,M,,*62
$GPGSA,A,3,01,02,03,04,05,06,07,08,09,10,11,12,1.0,1.0,1.0*30
$GPRMC,143334.798,A,4812.631,N,01715.212,E,048.6,066.3,261124,000.0,W*7D
$GPGGA,143335.798,4812.636,N,01715.231,E,1,12,1.0,0.0,M,0.0,M,,*65
$GPGSA,A,3,01,02,03,04,05,06,07,08,09,10,11,12,1.0,1.0,1.0*30
$GPRMC,143335.798,A,4812.636,N,01715.231,E,048.6,066.3,261124,000.0,W*7A
$GPGGA,143336.798,4812.642,N,01715.249,E,1,12,1.0,0.0,M,0.0,M,,*6A
$GPGSA,A,3,01,02,03,04,05,06,07,08,09,10,11,12,1.0,1.0,1.0*30
$GPRMC,143336.798,A,4812.642,N,01715.249,E,048.6,066.3,261124,000.0,W*75
$GPGGA,143337.798,4812.647,N,01715.268,E,1,12,1.0,0.0,M,0.0,M,,*6D
$GPGSA,A,3,01,02,03,04,05,06,07,08,09,10,11,12,1.0,1.0,1.0*30
$GPRMC,143337.798,A,4812.647,N,01715.268,E,048.6,066.3,261124,000.0,W*72
$GPGGA,143338.798,4812.653,N,01715.286,E,1,12,1.0,0.0,M,0.0,M,,*67
$GPGSA,A,3,01,02,03,04,05,06,07,08,09,10,11,12,1.0,1.0,1.0*30
$GPRMC,143338.798,A,4812.653,N,01715.286,E,048.6,066.3,261124,000.0,W*78
$GPGGA,143339.798,4812.658,N,01715.305,E,1,12,1.0,0.0,M,0.0,M,,*67
$GPGSA,A,3,01,02,03,04,05,06,07,08,09,10,11,12,1.0,1.0,1.0*30
$GPRMC,143339.798,A,4812.658,N,01715.305,E,048.6,066.3,261124,000.0,W*78
$GPGGA,143340.798,4812.663,N,01715.323,E,1,12,1.0,0.0,M,0.0,M,,*65
$GPGSA,A,3,01,02,03,04,05,06,07,08,09,10,11,12,1.0,1.0,1.0*30
$GPRMC,143340.798,A,4812.663,N,01715.323,E,048.6,066.3,261124,000.0,W*7A
$GPGGA,143341.798,4812.669,N,01715.342,E,1,12,1.0,0.0,M,0.0,M,,*69
$GPGSA,A,3,01,02,03,04,05,06,07,08,09,10,11,12,1.0,1.0,1.0*30
$GPRMC,143341.798,A,4812.669,N,01715.342,E,048.6,066.3,261124,000.0,W*76
