$GPGGA,123910.114,5030.014,N,01402.283,E,1,12,1.0,0.0,M,0.0,M,,*6F
$GPGSA,A,3,01,02,03,04,05,06,07,08,09,10,11,12,1.0,1.0,1.0*30
$GPRMC,123910.114,A,5030.014,N,01402.283,E,038.9,051.5,190623,000.0,W*77
$GPGGA,123911.114,5030.022,N,01402.294,E,1,12,1.0,0.0,M,0.0,M,,*6D
$GPGSA,A,3,01,02,03,04,05,06,07,08,09,10,11,12,1.0,1.0,1.0*30
$GPRMC,123911.114,A,5030.022,N,01402.294,E,038.9,051.5,190623,000.0,W*75
$GPGGA,123912.114,5030.031,N,01402.304,E,1,12,1.0,0.0,M,0.0,M,,*64
$GPGSA,A,3,01,02,03,04,05,06,07,08,09,10,11,12,1.0,1.0,1.0*30
$GPRMC,123912.114,A,5030.031,N,01402.304,E,038.9,051.5,190623,000.0,W*7C
$GPGGA,123913.114,5030.039,N,01402.315,E,1,12,1.0,0.0,M,0.0,M,,*6D
$GPGSA,A,3,01,02,03,04,05,06,07,08,09,10,11,12,1.0,1.0,1.0*30
$GPRMC,123913.114,A,5030.039,N,01402.315,E,038.9,051.5,190623,000.0,W*75
$GPGGA,123914.114,5030.047,N,01402.325,E,1,12,1.0,0.0,M,0.0,M,,*60
$GPGSA,A,3,01,02,03,04,05,06,07,08,09,10,11,12,1.0,1.0,1.0*30
$GPRMC,123914.114,A,5030.047,N,01402.325,E,038.9,051.5,190623,000.0,W*78
$GPGGA,123915.114,5030.056,N,01402.336,E,1,12,1.0,0.0,M,0.0,M,,*63
$GPGSA,A,3,01,02,03,04,05,06,07,08,09,10,11,12,1.0,1.0,1.0*30
$GPRMC,123915.114,A,5030.056,N,01402.336,E,038.9,051.5,190623,000.0,W*7B
$GPGGA,123916.114,5030.064,N,01402.347,E,1,12,1.0,0.0,M,0.0,M,,*67
$GPGSA,A,3,01,02,03,04,05,06,07,08,09,10,11,12,1.0,1.0,1.0*30
$GPRMC,123916.114,A,5030.064,N,01402.347,E,038.9,051.5,190623,000.0,W*7F
$GPGGA,123917.114,5030.073,N,01402.357,E,1,12,1.0,0.0,M,0.0,M,,*61
$GPGSA,A,3,01,02,03,04,05,06,07,08,09,10,11,12,1.0,1.0,1.0*30
$GPRMC,123917.114,A,5030.073,N,01402.357,E,038.9,051.5,190623,000.0,W*79
$GPGGA,123918.114,5030.081,N,01402.368,E,1,12,1.0,0.0,M,0.0,M,,*6F
$GPGSA,A,3,01,02,03,04,05,06,07,08,09,10,11,12,1.0,1.0,1.0*30
$GPRMC,123918.114,A,5030.081,N,01402.368,E,038.9,051.5,190623,000.0,W*77
$GPGGA,123919.114,5030.090,N,01402.378,E,1,12,1.0,0.0,M,0.0,M,,*6F
$GPGSA,A,3,01,02,03,04,05,06,07,08,09,10,11,12,1.0,1.0,1.0*30
$GPRMC,123919.114,A,5030.090,N,01402.378,E,038.9,051.5,190623,000.0,W*77
$GPGGA,123920.114,5030.098,N,01402.389,E,1,12,1.0,0.0,M,0.0,M,,*63
$GPGSA,A,3,01,02,03,04,05,06,07,08,09,10,11,12,1.0,1.0,1.0*30
$GPRMC,123920.114,A,5030.098,N,01402.389,E,038.9,051.5,190623,000.0,W*7B
$GPGGA,123921.114,5030.106,N,01402.400,E,1,12,1.0,0.0,M,0.0,M,,*62
$GPGSA,A,3,01,02,03,04,05,06,07,08,09,10,11,12,1.0,1.0,1.0*30
$GPRMC,123921.114,A,5030.106,N,01402.400,E,038.9,051.5,190623,000.0,W*7A
$GPGGA,123922.114,5030.115,N,01402.410,E,1,12,1.0,0.0,M,0.0,M,,*62
$GPGSA,A,3,01,02,03,04,05,06,07,08,09,10,11,12,1.0,1.0,1.0*30
$GPRMC,123922.114,A,5030.115,N,01402.410,E,038.9,051.5,190623,000.0,W*7A
$GPGGA,123923.114,5030.123,N,01402.421,E,1,12,1.0,0.0,M,0.0,M,,*64
$GPGSA,A,3,01,02,03,04,05,06,07,08,09,10,11,12,1.0,1.0,1.0*30
$GPRMC,123923.114,A,5030.123,N,01402.421,E,038.9,051.5,190623,000.0,W*7C
$GPGGA,123924.114,5030.132,N,01402.432,E,1,12,1.0,0.0,M,0.0,M,,*61
$GPGSA,A,3,01,02,03,04,05,06,07,08,09,10,11,12,1.0,1.0,1.0*30
$GPRMC,123924.114,A,5030.132,N,01402.432,E,038.9,051.5,190623,000.0,W*79
$GPGGA,123925.114,5030.140,N,01402.442,E,1,12,1.0,0.0,M,0.0,M,,*62
$GPGSA,A,3,01,02,03,04,05,06,07,08,09,10,11,12,1.0,1.0,1.0*30
$GPRMC,123925.114,A,5030.140,N,01402.442,E,038.9,051.5,190623,000.0,W*7A
$GPGGA,123926.114,5030.149,N,01402.453,E,1,12,1.0,0.0,M,0.0,M,,*68
$GPGSA,A,3,01,02,03,04,05,06,07,08,09,10,11,12,1.0,1.0,1.0*30
$GPRMC,123926.114,A,5030.149,N,01402.453,E,038.9,051.5,190623,000.0,W*70
$GPGGA,123927.114,5030.157,N,01402.463,E,1,12,1.0,0.0,M,0.0,M,,*65
$GPGSA,A,3,01,02,03,04,05,06,07,08,09,10,11,12,1.0,1.0,1.0*30
$GPRMC,123927.114,A,5030.157,N,01402.463,E,038.9,051.5,190623,000.0,W*7D
$GPGGA,123928.114,5030.165,N,01402.474,E,1,12,1.0,0.0,M,0.0,M,,*6D
$GPGSA,A,3,01,02,03,04,05,06,07,08,09,10,11,12,1.0,1.0,1.0*30
$GPRMC,123928.114,A,5030.165,N,01402.474,E,038.9,051.5,190623,000.0,W*75
$GPGGA,123929.114,5030.174,N,01402.485,E,1,12,1.0,0.0,M,0.0,M,,*62
$GPGSA,A,3,01,02,03,04,05,06,07,08,09,10,11,12,1.0,1.0,1.0*30
$GPRMC,123929.114,A,5030.174,N,01402.485,E,038.9,051.5,190623,000.0,W*7A
$GPGGA,123930.114,5030.182,N,01402.495,E,1,12,1.0,0.0,M,0.0,M,,*62
$GPGSA,A,3,01,02,03,04,05,06,07,08,09,10,11,12,1.0,1.0,1.0*30
$GPRMC,123930.114,A,5030.182,N,01402.495,E,038.9,051.5,190623,000.0,W*7A
$GPGGA,123931.114,5030.191,N,01402.506,E,1,12,1.0,0.0,M,0.0,M,,*6A
$GPGSA,A,3,01,02,03,04,05,06,07,08,09,10,11,12,1.0,1.0,1.0*30
$GPRMC,123931.114,A,5030.191,N,01402.506,E,038.9,051.5,190623,000.0,W*72
$GPGGA,123932.114,5030.199,N,01402.516,E,1,12,1.0,0.0,M,0.0,M,,*60
$GPGSA,A,3,01,02,03,04,05,06,07,08,09,10,11,12,1.0,1.0,1.0*30
$GPRMC,123932.114,A,5030.199,N,01402.516,E,038.9,051.5,190623,000.0,W*78
$GPGGA,123933.114,5030.207,N,01402.527,E,1,12,1.0,0.0,M,0.0,M,,*67
$GPGSA,A,3,01,02,03,04,05,06,07,08,09,10,11,12,1.0,1.0,1.0*30
$GPRMC,123933.114,A,5030.207,N,01402.527,E,038.9,051.5,190623,000.0,W*7F
$GPGGA,123934.114,5030.216,N,01402.538,E,1,12,1.0,0.0,M,0.0,M,,*6E
$GPGSA,A,3,01,02,03,04,05,06,07,08,09,10,11,12,1.0,1.0,1.0*30
$GPRMC,123934.114,A,5030.216,N,01402.538,E,038.9,051.5,190623,000.0,W*76
$GPGGA,123935.114,5030.224,N,01402.548,E,1,12,1.0,0.0,M,0.0,M,,*69
$GPGSA,A,3,01,02,03,04,05,06,07,08,09,10,11,12,1.0,1.0,1.0*30
$GPRMC,123935.114,A,5030.224,N,01402.548,E,038.9,051.5,190623,000.0,W*71
$GPGGA,123936.114,5030.233,N,01402.559,E,1,12,1.0,0.0,M,0.0,M,,*6C
$GPGSA,A,3,01,02,03,04,05,06,07,08,09,10,11,12,1.0,1.0,1.0*30
$GPRMC,123936.114,A,5030.233,N,01402.559,E,038.9,051.5,190623,000.0,W*74
$GPGGA,123937.114,5030.241,N,01402.570,E,1,12,1.0,0.0,M,0.0,M,,*63
$GPGSA,A,3,01,02,03,04,05,06,07,08,09,10,11,12,1.0,1.0,1.0*30
$GPRMC,123937.114,A,5030.241,N,01402.570,E,038.9,051.5,190623,000.0,W*7B
$GPGGA,123938.114,5030.250,N,01402.580,E,1,12,1.0,0.0,M,0.0,M,,*63
$GPGSA,A,3,01,02,03,04,05,06,07,08,09,10,11,12,1.0,1.0,1.0*30
$GPRMC,123938.114,A,5030.250,N,01402.580,E,038.9,051.5,190623,000.0,W*7B
$GPGGA,123939.114,5030.258,N,01402.591,E,1,12,1.0,0.0,M,0.0,M,,*6A
$GPGSA,A,3,01,02,03,04,05,06,07,08,09,10,11,12,1.0,1.0,1.0*30
$GPRMC,123939.114,A,5030.258,N,01402.591,E,038.9,051.5,190623,000.0,W*72
$GPGGA,123940.114,5030.266,N,01402.601,E,1,12,1.0,0.0,M,0.0,M,,*63
$GPGSA,A,3,01,02,03,04,05,06,07,08,09,10,11,12,1.0,1.0,1.0*30
$GPRMC,123940.114,A,5030.266,N,01402.601,E,038.9,051.5,190623,000.0,W*7B
$GPGGA,123941.114,5030.275,N,01402.612,E,1,12,1.0,0.0,M,0.0,M,,*62
$GPGSA,A,3,01,02,03,04,05,06,07,08,09,10,11,12,1.0,1.0,1.0*30
$GPRMC,123941.114,A,5030.275,N,01402.612,E,038.9,051.5,190623,000.0,W*7A
$GPGGA,123942.114,5030.283,N,01402.623,E,1,12,1.0,0.0,M,0.0,M,,*6A
$GPGSA,A,3,01,02,03,04,05,06,07,08,09,10,11,12,1.0,1.0,1.0*30
$GPRMC,123942.114,A,5030.283,N,01402.623,E,038.9,051.5,190623,000.0,W*72
$GPGGA,123943.114,5030.292,N,01402.633,E,1,12,1.0,0.0,M,0.0,M,,*6A
$GPGSA,A,3,01,02,03,04,05,06,07,08,09,10,11,12,1.0,1.0,1.0*30
$GPRMC,123943.114,A,5030.292,N,01402.633,E,038.9,051.5,190623,000.0,W*72
$GPGGA,123944.114,5030.300,N,01402.644,E,1,12,1.0,0.0,M,0.0,M,,*67
$GPGSA,A,3,01,02,03,04,05,06,07,08,09,10,11,12,1.0,1.0,1.0*30
$GPRMC,123944.114,A,5030.300,N,01402.644,E,038.9,051.5,190623,000.0,W*7F
$GPGGA,123945.114,5030.308,N,01402.654,E,1,12,1.0,0.0,M,0.0,M,,*6F
$GPGSA,A,3,01,02,03,04,05,06,07,08,09,10,11,12,1.0,1.0,1.0*30
$GPRMC,123945.114,A,5030.308,N,01402.654,E,038.9,051.5,190623,000.0,W*77
$GPGGA,123946.114,5030.317,N,01402.665,E,1,12,1.0,0.0,M,0.0,M,,*60
$GPGSA,A,3,01,02,03,04,05,06,07,08,09,10,11,12,1.0,1.0,1.0*30
$GPRMC,123946.114,A,5030.317,N,01402.665,E,038.9,051.5,190623,000.0,W*78
$GPGGA,123947.114,5030.325,N,01402.676,E,1,12,1.0,0.0,M,0.0,M,,*62
$GPGSA,A,3,01,02,03,04,05,06,07,08,09,10,11,12,1.0,1.0,1.0*30
$GPRMC,123947.114,A,5030.325,N,01402.676,E,038.9,051.5,190623,000.0,W*7A
$GPGGA,123948.114,5030.334,N,01402.686,E,1,12,1.0,0.0,M,0.0,M,,*62
$GPGSA,A,3,01,02,03,04,05,06,07,08,09,10,11,12,1.0,1.0,1.0*30
$GPRMC,123948.114,A,5030.334,N,01402.686,E,038.9,051.5,190623,000.0,W*7A
$GPGGA,123949.114,5030.342,N,01402.697,E,1,12,1.0,0.0,M,0.0,M,,*62
$GPGSA,A,3,01,02,03,04,05,06,07,08,09,10,11,12,1.0,1.0,1.0*30
$GPRMC,123949.114,A,5030.342,N,01402.697,E,038.9,051.5,190623,000.0,W*7A
$GPGGA,123950.114,5030.351,N,01402.708,E,1,12,1.0,0.0,M,0.0,M,,*6F
$GPGSA,A,3,01,02,03,04,05,06,07,08,09,10,11,12,1.0,1.0,1.0*30
$GPRMC,123950.114,A,5030.351,N,01402.708,E,038.9,051.5,190623,000.0,W*77
$GPGGA,123951.114,5030.359,N,01402.718,E,1,12,1.0,0.0,M,0.0,M,,*67
$GPGSA,A,3,01,02,03,04,05,06,07,08,09,10,11,12,1.0,1.0,1.0*30
$GPRMC,123951.114,A,5030.359,N,01402.718,E,038.9,051.5,190623,000.0,W*7F
$GPGGA,123952.114,5030.367,N,01402.729,E,1,12,1.0,0.0,M,0.0,M,,*6B
$GPGSA,A,3,01,02,03,04,05,06,07,08,09,10,11,12,1.0,1.0,1.0*30
$GPRMC,123952.114,A,5030.367,N,01402.729,E,038.9,051.5,190623,000.0,W*73
$GPGGA,123953.114,5030.376,N,01402.739,E,1,12,1.0,0.0,M,0.0,M,,*6B
$GPGSA,A,3,01,02,03,04,05,06,07,08,09,10,11,12,1.0,1.0,1.0*30
$GPRMC,123953.114,A,5030.376,N,01402.739,E,038.9,051.5,190623,000.0,W*73
$GPGGA,123954.114,5030.384,N,01402.750,E,1,12,1.0,0.0,M,0.0,M,,*6E
$GPGSA,A,3,01,02,03,04,05,06,07,08,09,10,11,12,1.0,1.0,1.0*30
$GPRMC,123954.114,A,5030.384,N,01402.750,E,038.9,051.5,190623,000.0,W*76
$GPGGA,123955.114,5030.393,N,01402.761,E,1,12,1.0,0.0,M,0.0,M,,*6B
$GPGSA,A,3,01,02,03,04,05,06,07,08,09,10,11,12,1.0,1.0,1.0*30
$GPRMC,123955.114,A,5030.393,N,01402.761,E,038.9,051.5,190623,000.0,W*73
$GPGGA,123956.114,5030.401,N,01402.771,E,1,12,1.0,0.0,M,0.0,M,,*65
$GPGSA,A,3,01,02,03,04,05,06,07,08,09,10,11,12,1.0,1.0,1.0*30
$GPRMC,123956.114,A,5030.401,N,01402.771,E,038.9,051.5,190623,000.0,W*7D
$GPGGA,123957.114,5030.409,N,01402.782,E,1,12,1.0,0.0,M,0.0,M,,*60
$GPGSA,A,3,01,02,03,04,05,06,07,08,09,10,11,12,1.0,1.0,1.0*30
$GPRMC,123957.114,A,5030.409,N,01402.782,E,038.9,051.5,190623,000.0,W*78
$GPGGA,123958.114,5030.418,N,01402.792,E,1,12,1.0,0.0,M,0.0,M,,*6E
$GPGSA,A,3,01,02,03,04,05,06,07,08,09,10,11,12,1.0,1.0,1.0*30
$GPRMC,123958.114,A,5030.418,N,01402.792,E,038.9,051.5,190623,000.0,W*76
$GPGGA,123959.114,5030.426,N,01402.803,E,1,12,1.0,0.0,M,0.0,M,,*65
$GPGSA,A,3,01,02,03,04,05,06,07,08,09,10,11,12,1.0,1.0,1.0*30
$GPRMC,123959.114,A,5030.426,N,01402.803,E,038.9,051.5,190623,000.0,W*7D
$GPGGA,124000.114,5030.435,N,01402.814,E,1,12,1.0,0.0,M,0.0,M,,*63
$GPGSA,A,3,01,02,03,04,05,06,07,08,09,10,11,12,1.0,1.0,1.0*30
$GPRMC,124000.114,A,5030.435,N,01402.814,E,038.9,051.5,190623,000.0,W*7B
$GPGGA,124001.114,5030.443,N,01402.824,E,1,12,1.0,0.0,M,0.0,M,,*60
$GPGSA,A,3,01,02,03,04,05,06,07,08,09,10,11,12,1.0,1.0,1.0*30
$GPRMC,124001.114,A,5030.443,N,01402.824,E,038.9,051.5,190623,000.0,W*78
$GPGGA,124002.114,5030.452,N,01402.835,E,1,12,1.0,0.0,M,0.0,M,,*63
$GPGSA,A,3,01,02,03,04,05,06,07,08,09,10,11,12,1.0,1.0,1.0*30
$GPRMC,124002.114,A,5030.452,N,01402.835,E,038.9,051.5,190623,000.0,W*7B
$GPGGA,124003.114,5030.460,N,01402.846,E,1,12,1.0,0.0,M,0.0,M,,*67
$GPGSA,A,3,01,02,03,04,05,06,07,08,09,10,11,12,1.0,1.0,1.0*30
$GPRMC,124003.114,A,5030.460,N,01402.846,E,038.9,051.5,190623,000.0,W*7F
$GPGGA,124004.114,5030.468,N,01402.856,E,1,12,1.0,0.0,M,0.0,M,,*69
$GPGSA,A,3,01,02,03,04,05,06,07,08,09,10,11,12,1.0,1.0,1.0*30
$GPRMC,124004.114,A,5030.468,N,01402.856,E,038.9,051.5,190623,000.0,W*71
$GPGGA,124005.114,5030.477,N,01402.867,E,1,12,1.0,0.0,M,0.0,M,,*64
$GPGSA,A,3,01,02,03,04,05,06,07,08,09,10,11,12,1.0,1.0,1.0*30
$GPRMC,124005.114,A,5030.477,N,01402.867,E,038.9,051.5,190623,000.0,W*7C
$GPGGA,124006.114,5030.485,N,01402.877,E,1,12,1.0,0.0,M,0.0,M,,*6B
$GPGSA,A,3,01,02,03,04,05,06,07,08,09,10,11,12,1.0,1.0,1.0*30
$GPRMC,124006.114,A,5030.485,N,01402.877,E,038.9,051.5,190623,000.0,W*73
$GPGGA,124007.114,5030.494,N,01402.888,E,1,12,1.0,0.0,M,0.0,M,,*6A
$GPGSA,A,3,01,02,03,04,05,06,07,08,09,10,11,12,1.0,1.0,1.0*30
$GPRMC,124007.114,A,5030.494,N,01402.888,E,038.9,051.5,190623,000.0,W*72
