$GPGGA,123910.114,5030.413,N,01402.782,E,1,12,1.0,0.0,M,0.0,M,,*68
$GPGSA,A,3,01,02,03,04,05,06,07,08,09,10,11,12,1.0,1.0,1.0*30
$GPRMC,123910.114,A,5030.413,N,01402.782,E,038.9,219.2,190623,000.0,W*79
$GPGGA,123911.114,5030.405,N,01402.771,E,1,12,1.0,0.0,M,0.0,M,,*62
$GPGSA,A,3,01,02,03,04,05,06,07,08,09,10,11,12,1.0,1.0,1.0*30
$GPRMC,123911.114,A,5030.405,N,01402.771,E,038.9,219.2,190623,000.0,W*73
$GPGGA,123912.114,5030.397,N,01402.760,E,1,12,1.0,0.0,M,0.0,M,,*6D
$GPGSA,A,3,01,02,03,04,05,06,07,08,09,10,11,12,1.0,1.0,1.0*30
$GPRMC,123912.114,A,5030.397,N,01402.760,E,038.9,219.2,190623,000.0,W*7C
$GPGGA,123913.114,5030.388,N,01402.750,E,1,12,1.0,0.0,M,0.0,M,,*61
$GPGSA,A,3,01,02,03,04,05,06,07,08,09,10,11,12,1.0,1.0,1.0*30
$GPRMC,123913.114,A,5030.388,N,01402.750,E,038.9,219.2,190623,000.0,W*70
$GPGGA,123914.114,5030.380,N,01402.739,E,1,12,1.0,0.0,M,0.0,M,,*61
$GPGSA,A,3,01,02,03,04,05,06,07,08,09,10,11,12,1.0,1.0,1.0*30
$GPRMC,123914.114,A,5030.380,N,01402.739,E,038.9,219.2,190623,000.0,W*70
$GPGGA,123915.114,5030.372,N,01402.728,E,1,12,1.0,0.0,M,0.0,M,,*6D
$GPGSA,A,3,01,02,03,04,05,06,07,08,09,10,11,12,1.0,1.0,1.0*30
$GPRMC,123915.114,A,5030.372,N,01402.728,E,038.9,219.2,190623,000.0,W*7C
$GPGGA,123916.114,5030.363,N,01402.717,E,1,12,1.0,0.0,M,0.0,M,,*62
$GPGSA,A,3,01,02,03,04,05,06,07,08,09,10,11,12,1.0,1.0,1.0*30
$GPRMC,123916.114,A,5030.363,N,01402.717,E,038.9,219.2,190623,000.0,W*73
$GPGGA,123917.114,5030.355,N,01402.707,E,1,12,1.0,0.0,M,0.0,M,,*67
$GPGSA,A,3,01,02,03,04,05,06,07,08,09,10,11,12,1.0,1.0,1.0*30
$GPRMC,123917.114,A,5030.355,N,01402.707,E,038.9,219.2,190623,000.0,W*76
$GPGGA,123918.114,5030.347,N,01402.696,E,1,12,1.0,0.0,M,0.0,M,,*62
$GPGSA,A,3,01,02,03,04,05,06,07,08,09,10,11,12,1.0,1.0,1.0*30
$GPRMC,123918.114,A,5030.347,N,01402.696,E,038.9,219.2,190623,000.0,W*73
$GPGGA,123919.114,5030.338,N,01402.685,E,1,12,1.0,0.0,M,0.0,M,,*69
$GPGSA,A,3,01,02,03,04,05,06,07,08,09,10,11,12,1.0,1.0,1.0*30
$GPRMC,123919.114,A,5030.338,N,01402.685,E,038.9,219.2,190623,000.0,W*78
$GPGGA,123920.114,5030.330,N,01402.675,E,1,12,1.0,0.0,M,0.0,M,,*64
$GPGSA,A,3,01,02,03,04,05,06,07,08,09,10,11,12,1.0,1.0,1.0*30
$GPRMC,123920.114,A,5030.330,N,01402.675,E,038.9,219.2,190623,000.0,W*75
$GPGGA,123921.114,5030.321,N,01402.664,E,1,12,1.0,0.0,M,0.0,M,,*65
$GPGSA,A,3,01,02,03,04,05,06,07,08,09,10,11,12,1.0,1.0,1.0*30
$GPRMC,123921.114,A,5030.321,N,01402.664,E,038.9,219.2,190623,000.0,W*74
$GPGGA,123922.114,5030.313,N,01402.653,E,1,12,1.0,0.0,M,0.0,M,,*63
$GPGSA,A,3,01,02,03,04,05,06,07,08,09,10,11,12,1.0,1.0,1.0*30
$GPRMC,123922.114,A,5030.313,N,01402.653,E,038.9,219.2,190623,000.0,W*72
$GPGGA,123923.114,5030.305,N,01402.642,E,1,12,1.0,0.0,M,0.0,M,,*65
$GPGSA,A,3,01,02,03,04,05,06,07,08,09,10,11,12,1.0,1.0,1.0*30
$GPRMC,123923.114,A,5030.305,N,01402.642,E,038.9,219.2,190623,000.0,W*74
$GPGGA,123924.114,5030.296,N,01402.632,E,1,12,1.0,0.0,M,0.0,M,,*6E
$GPGSA,A,3,01,02,03,04,05,06,07,08,09,10,11,12,1.0,1.0,1.0*30
$GPRMC,123924.114,A,5030.296,N,01402.632,E,038.9,219.2,190623,000.0,W*7F
$GPGGA,123925.114,5030.288,N,01402.621,E,1,12,1.0,0.0,M,0.0,M,,*62
$GPGSA,A,3,01,02,03,04,05,06,07,08,09,10,11,12,1.0,1.0,1.0*30
$GPRMC,123925.114,A,5030.288,N,01402.621,E,038.9,219.2,190623,000.0,W*73
$GPGGA,123926.114,5030.280,N,01402.610,E,1,12,1.0,0.0,M,0.0,M,,*6B
$GPGSA,A,3,01,02,03,04,05,06,07,08,09,10,11,12,1.0,1.0,1.0*30
$GPRMC,123926.114,A,5030.280,N,01402.610,E,038.9,219.2,190623,000.0,W*7A
$GPGGA,123927.114,5030.271,N,01402.599,E,1,12,1.0,0.0,M,0.0,M,,*66
$GPGSA,A,3,01,02,03,04,05,06,07,08,09,10,11,12,1.0,1.0,1.0*30
$GPRMC,123927.114,A,5030.271,N,01402.599,E,038.9,219.2,190623,000.0,W*77
$GPGGA,123928.114,5030.263,N,01402.589,E,1,12,1.0,0.0,M,0.0,M,,*6B
$GPGSA,A,3,01,02,03,04,05,06,07,08,09,10,11,12,1.0,1.0,1.0*30
$GPRMC,123928.114,A,5030.263,N,01402.589,E,038.9,219.2,190623,000.0,W*7A
$GPGGA,123929.114,5030.255,N,01402.578,E,1,12,1.0,0.0,M,0.0,M,,*61
$GPGSA,A,3,01,02,03,04,05,06,07,08,09,10,11,12,1.0,1.0,1.0*30
$GPRMC,123929.114,A,5030.255,N,01402.578,E,038.9,219.2,190623,000.0,W*70
$GPGGA,123930.114,5030.246,N,01402.567,E,1,12,1.0,0.0,M,0.0,M,,*65
$GPGSA,A,3,01,02,03,04,05,06,07,08,09,10,11,12,1.0,1.0,1.0*30
$GPRMC,123930.114,A,5030.246,N,01402.567,E,038.9,219.2,190623,000.0,W*74
$GPGGA,123931.114,5030.238,N,01402.557,E,1,12,1.0,0.0,M,0.0,M,,*6E
$GPGSA,A,3,01,02,03,04,05,06,07,08,09,10,11,12,1.0,1.0,1.0*30
$GPRMC,123931.114,A,5030.238,N,01402.557,E,038.9,219.2,190623,000.0,W*7F
$GPGGA,123932.114,5030.229,N,01402.546,E,1,12,1.0,0.0,M,0.0,M,,*6D
$GPGSA,A,3,01,02,03,04,05,06,07,08,09,10,11,12,1.0,1.0,1.0*30
$GPRMC,123932.114,A,5030.229,N,01402.546,E,038.9,219.2,190623,000.0,W*7C
$GPGGA,123933.114,5030.221,N,01402.535,E,1,12,1.0,0.0,M,0.0,M,,*60
$GPGSA,A,3,01,02,03,04,05,06,07,08,09,10,11,12,1.0,1.0,1.0*30
$GPRMC,123933.114,A,5030.221,N,01402.535,E,038.9,219.2,190623,000.0,W*71
$GPGGA,123934.114,5030.213,N,01402.524,E,1,12,1.0,0.0,M,0.0,M,,*66
$GPGSA,A,3,01,02,03,04,05,06,07,08,09,10,11,12,1.0,1.0,1.0*30
$GPRMC,123934.114,A,5030.213,N,01402.524,E,038.9,219.2,190623,000.0,W*77
$GPGGA,123935.114,5030.204,N,01402.514,E,1,12,1.0,0.0,M,0.0,M,,*62
$GPGSA,A,3,01,02,03,04,05,06,07,08,09,10,11,12,1.0,1.0,1.0*30
$GPRMC,123935.114,A,5030.204,N,01402.514,E,038.9,219.2,190623,000.0,W*73
$GPGGA,123936.114,5030.196,N,01402.503,E,1,12,1.0,0.0,M,0.0,M,,*6F
$GPGSA,A,3,01,02,03,04,05,06,07,08,09,10,11,12,1.0,1.0,1.0*30
$GPRMC,123936.114,A,5030.196,N,01402.503,E,038.9,219.2,190623,000.0,W*7E
$GPGGA,123937.114,5030.188,N,01402.492,E,1,12,1.0,0.0,M,0.0,M,,*68
$GPGSA,A,3,01,02,03,04,05,06,07,08,09,10,11,12,1.0,1.0,1.0*30
$GPRMC,123937.114,A,5030.188,N,01402.492,E,038.9,219.2,190623,000.0,W*79
$GPGGA,123938.114,5030.179,N,01402.481,E,1,12,1.0,0.0,M,0.0,M,,*6B
$GPGSA,A,3,01,02,03,04,05,06,07,08,09,10,11,12,1.0,1.0,1.0*30
$GPRMC,123938.114,A,5030.179,N,01402.481,E,038.9,219.2,190623,000.0,W*7A
$GPGGA,123939.114,5030.171,N,01402.471,E,1,12,1.0,0.0,M,0.0,M,,*6D
$GPGSA,A,3,01,02,03,04,05,06,07,08,09,10,11,12,1.0,1.0,1.0*30
$GPRMC,123939.114,A,5030.171,N,01402.471,E,038.9,219.2,190623,000.0,W*7C
$GPGGA,123940.114,5030.163,N,01402.460,E,1,12,1.0,0.0,M,0.0,M,,*60
$GPGSA,A,3,01,02,03,04,05,06,07,08,09,10,11,12,1.0,1.0,1.0*30
$GPRMC,123940.114,A,5030.163,N,01402.460,E,038.9,219.2,190623,000.0,W*71
$GPGGA,123941.114,5030.154,N,01402.449,E,1,12,1.0,0.0,M,0.0,M,,*6E
$GPGSA,A,3,01,02,03,04,05,06,07,08,09,10,11,12,1.0,1.0,1.0*30
$GPRMC,123941.114,A,5030.154,N,01402.449,E,038.9,219.2,190623,000.0,W*7F
$GPGGA,123942.114,5030.146,N,01402.439,E,1,12,1.0,0.0,M,0.0,M,,*69
$GPGSA,A,3,01,02,03,04,05,06,07,08,09,10,11,12,1.0,1.0,1.0*30
$GPRMC,123942.114,A,5030.146,N,01402.439,E,038.9,219.2,190623,000.0,W*78
$GPGGA,123943.114,5030.137,N,01402.428,E,1,12,1.0,0.0,M,0.0,M,,*6E
$GPGSA,A,3,01,02,03,04,05,06,07,08,09,10,11,12,1.0,1.0,1.0*30
$GPRMC,123943.114,A,5030.137,N,01402.428,E,038.9,219.2,190623,000.0,W*7F
