$GPGGA,095143.774,4808.537,N,01707.927,E,1,12,0.05,0.0,M,0.0,M,*70
$GPGSA,A,3,01,02,03,04,05,06,07,08,09,10,11,12,1.0,1.0,1.0*30
$GPRMC,095143.774,A,4808.537,N,01707.927,E,038.9,273.1,080824,000.0,W*7F
$GPGGA,095144.774,4808.538,N,01707.911,E,1,12,0.05,0.0,M,0.0,M,*7D
$GPGSA,A,3,01,02,03,04,05,06,07,08,09,10,11,12,1.0,1.0,1.0*30
$GPRMC,095144.774,A,4808.538,N,01707.911,E,038.9,273.1,080824,000.0,W*72
$GPGGA,095145.774,4808.538,N,01707.895,E,1,12,0.05,0.0,M,0.0,M,*71
$GPGSA,A,3,01,02,03,04,05,06,07,08,09,10,11,12,1.0,1.0,1.0*30
$GPRMC,095145.774,A,4808.538,N,01707.895,E,038.9,273.1,080824,000.0,W*7E
$GPGGA,095146.774,4808.539,N,01707.879,E,1,12,0.05,0.0,M,0.0,M,*71
$GPGSA,A,3,01,02,03,04,05,06,07,08,09,10,11,12,1.0,1.0,1.0*30
$GPRMC,095146.774,A,4808.539,N,01707.879,E,038.9,273.1,080824,000.0,W*7E
$GPGGA,095147.774,4808.540,N,01707.862,E,1,12,0.05,0.0,M,0.0,M,*74
$GPGSA,A,3,01,02,03,04,05,06,07,08,09,10,11,12,1.0,1.0,1.0*30
$GPRMC,095147.774,A,4808.540,N,01707.862,E,038.9,273.1,080824,000.0,W*7B
$GPGGA,095148.774,4808.540,N,01707.846,E,1,12,0.05,0.0,M,0.0,M,*7D
$GPGSA,A,3,01,02,03,04,05,06,07,08,09,10,11,12,1.0,1.0,1.0*30
$GPRMC,095148.774,A,4808.540,N,01707.846,E,038.9,273.1,080824,000.0,W*72
$GPGGA,095149.774,4808.541,N,01707.830,E,1,12,0.05,0.0,M,0.0,M,*7C
$GPGSA,A,3,01,02,03,04,05,06,07,08,09,10,11,12,1.0,1.0,1.0*30
$GPRMC,095149.774,A,4808.541,N,01707.830,E,038.9,353.3,080824,000.0,W*72
$GPGGA,095150.774,4808.551,N,01707.828,E,1,12,0.05,0.0,M,0.0,M,*7C
$GPGSA,A,3,01,02,03,04,05,06,07,08,09,10,11,12,1.0,1.0,1.0*30
$GPRMC,095150.774,A,4808.551,N,01707.828,E,038.9,020.5,080824,000.0,W*73
$GPGGA,095151.774,4808.562,N,01707.834,E,1,12,0.05,0.0,M,0.0,M,*70
$GPGSA,A,3,01,02,03,04,05,06,07,08,09,10,11,12,1.0,1.0,1.0*30
$GPRMC,095151.774,A,4808.562,N,01707.834,E,038.9,020.5,080824,000.0,W*7F
$GPGGA,095152.774,4808.572,N,01707.840,E,1,12,0.05,0.0,M,0.0,M,*71
$GPGSA,A,3,01,02,03,04,05,06,07,08,09,10,11,12,1.0,1.0,1.0*30
$GPRMC,095152.774,A,4808.572,N,01707.840,E,038.9,020.5,080824,000.0,W*7E
$GPGGA,095153.774,4808.582,N,01707.845,E,1,12,0.05,0.0,M,0.0,M,*7A
$GPGSA,A,3,01,02,03,04,05,06,07,08,09,10,11,12,1.0,1.0,1.0*30
$GPRMC,095153.774,A,4808.582,N,01707.845,E,038.9,020.5,080824,000.0,W*75
$GPGGA,095154.774,4808.592,N,01707.851,E,1,12,0.05,0.0,M,0.0,M,*79
$GPGSA,A,3,01,02,03,04,05,06,07,08,09,10,11,12,1.0,1.0,1.0*30
$GPRMC,095154.774,A,4808.592,N,01707.851,E,038.9,020.5,080824,000.0,W*76
$GPGGA,095155.774,4808.602,N,01707.857,E,1,12,0.05,0.0,M,0.0,M,*74
$GPGSA,A,3,01,02,03,04,05,06,07,08,09,10,11,12,1.0,1.0,1.0*30
$GPRMC,095155.774,A,4808.602,N,01707.857,E,038.9,020.5,080824,000.0,W*7B
$GPGGA,095156.774,4808.612,N,01707.862,E,1,12,0.05,0.0,M,0.0,M,*70
$GPGSA,A,3,01,02,03,04,05,06,07,08,09,10,11,12,1.0,1.0,1.0*30
$GPRMC,095156.774,A,4808.612,N,01707.862,E,038.9,020.5,080824,000.0,W*7F
$GPGGA,095157.774,4808.622,N,01707.868,E,1,12,0.05,0.0,M,0.0,M,*78
$GPGSA,A,3,01,02,03,04,05,06,07,08,09,10,11,12,1.0,1.0,1.0*30
$GPRMC,095157.774,A,4808.622,N,01707.868,E,038.9,020.5,080824,000.0,W*77
$GPGGA,095158.774,4808.632,N,01707.874,E,1,12,0.05,0.0,M,0.0,M,*7B
$GPGSA,A,3,01,02,03,04,05,06,07,08,09,10,11,12,1.0,1.0,1.0*30
$GPRMC,095158.774,A,4808.632,N,01707.874,E,038.9,019.2,080824,000.0,W*79
$GPGGA,095159.774,4808.643,N,01707.879,E,1,12,0.05,0.0,M,0.0,M,*71
$GPGSA,A,3,01,02,03,04,05,06,07,08,09,10,11,12,1.0,1.0,1.0*30
$GPRMC,095159.774,A,4808.643,N,01707.879,E,038.9,019.2,080824,000.0,W*73
$GPGGA,095200.774,4808.653,N,01707.884,E,1,12,0.05,0.0,M,0.0,M,*7D
$GPGSA,A,3,01,02,03,04,05,06,07,08,09,10,11,12,1.0,1.0,1.0*30
$GPRMC,095200.774,A,4808.653,N,01707.884,E,038.9,019.2,080824,000.0,W*7F
$GPGGA,095201.774,4808.663,N,01707.889,E,1,12,0.05,0.0,M,0.0,M,*72
$GPGSA,A,3,01,02,03,04,05,06,07,08,09,10,11,12,1.0,1.0,1.0*30
$GPRMC,095201.774,A,4808.663,N,01707.889,E,038.9,019.2,080824,000.0,W*70
$GPGGA,095202.774,4808.673,N,01707.895,E,1,12,0.05,0.0,M,0.0,M,*7D
$GPGSA,A,3,01,02,03,04,05,06,07,08,09,10,11,12,1.0,1.0,1.0*30
$GPRMC,095202.774,A,4808.673,N,01707.895,E,038.9,019.2,080824,000.0,W*7F
$GPGGA,095203.774,4808.683,N,01707.900,E,1,12,0.05,0.0,M,0.0,M,*7E
$GPGSA,A,3,01,02,03,04,05,06,07,08,09,10,11,12,1.0,1.0,1.0*30
$GPRMC,095203.774,A,4808.683,N,01707.900,E,038.9,019.2,080824,000.0,W*7C
$GPGGA,095204.774,4808.693,N,01707.905,E,1,12,0.05,0.0,M,0.0,M,*7D
$GPGSA,A,3,01,02,03,04,05,06,07,08,09,10,11,12,1.0,1.0,1.0*30
$GPRMC,095204.774,A,4808.693,N,01707.905,E,038.9,019.2,080824,000.0,W*7F
$GPGGA,095205.774,4808.704,N,01707.911,E,1,12,0.05,0.0,M,0.0,M,*76
$GPGSA,A,3,01,02,03,04,05,06,07,08,09,10,11,12,1.0,1.0,1.0*30
$GPRMC,095205.774,A,4808.704,N,01707.911,E,038.9,020.6,080824,000.0,W*7A
$GPGGA,095206.774,4808.714,N,01707.916,E,1,12,0.05,0.0,M,0.0,M,*73
$GPGSA,A,3,01,02,03,04,05,06,07,08,09,10,11,12,1.0,1.0,1.0*30
$GPRMC,095206.774,A,4808.714,N,01707.916,E,038.9,020.6,080824,000.0,W*7F
$GPGGA,095207.774,4808.724,N,01707.922,E,1,12,0.05,0.0,M,0.0,M,*76
$GPGSA,A,3,01,02,03,04,05,06,07,08,09,10,11,12,1.0,1.0,1.0*30
$GPRMC,095207.774,A,4808.724,N,01707.922,E,038.9,073.7,080824,000.0,W*7D
$GPGGA,095208.774,4808.727,N,01707.938,E,1,12,0.05,0.0,M,0.0,M,*71
$GPGSA,A,3,01,02,03,04,05,06,07,08,09,10,11,12,1.0,1.0,1.0*30
$GPRMC,095208.774,A,4808.727,N,01707.938,E,038.9,073.7,080824,000.0,W*7A
$GPGGA,095209.774,4808.730,N,01707.953,E,1,12,0.05,0.0,M,0.0,M,*7B
$GPGSA,A,3,01,02,03,04,05,06,07,08,09,10,11,12,1.0,1.0,1.0*30
$GPRMC,095209.774,A,4808.730,N,01707.953,E,038.9,098.6,080824,000.0,W*74
$GPGGA,095210.774,4808.728,N,01707.969,E,1,12,0.05,0.0,M,0.0,M,*73
$GPGSA,A,3,01,02,03,04,05,06,07,08,09,10,11,12,1.0,1.0,1.0*30
$GPRMC,095210.774,A,4808.728,N,01707.969,E,038.9,098.6,080824,000.0,W*7C
$GPGGA,095211.774,4808.727,N,01707.985,E,1,12,0.05,0.0,M,0.0,M,*7F
$GPGSA,A,3,01,02,03,04,05,06,07,08,09,10,11,12,1.0,1.0,1.0*30
$GPRMC,095211.774,A,4808.727,N,01707.985,E,038.9,098.6,080824,000.0,W*70
$GPGGA,095212.774,4808.725,N,01708.001,E,1,12,0.05,0.0,M,0.0,M,*74
$GPGSA,A,3,01,02,03,04,05,06,07,08,09,10,11,12,1.0,1.0,1.0*30
$GPRMC,095212.774,A,4808.725,N,01708.001,E,038.9,098.6,080824,000.0,W*7B
$GPGGA,095213.774,4808.723,N,01708.017,E,1,12,0.05,0.0,M,0.0,M,*74
$GPGSA,A,3,01,02,03,04,05,06,07,08,09,10,11,12,1.0,1.0,1.0*30
$GPRMC,095213.774,A,4808.723,N,01708.017,E,038.9,086.2,080824,000.0,W*70
$GPGGA,095214.774,4808.724,N,01708.033,E,1,12,0.05,0.0,M,0.0,M,*72
$GPGSA,A,3,01,02,03,04,05,06,07,08,09,10,11,12,1.0,1.0,1.0*30
$GPRMC,095214.774,A,4808.724,N,01708.033,E,038.9,086.2,080824,000.0,W*76
$GPGGA,095215.774,4808.725,N,01708.049,E,1,12,0.05,0.0,M,0.0,M,*7F
$GPGSA,A,3,01,02,03,04,05,06,07,08,09,10,11,12,1.0,1.0,1.0*30
$GPRMC,095215.774,A,4808.725,N,01708.049,E,038.9,086.2,080824,000.0,W*7B
$GPGGA,095216.774,4808.726,N,01708.066,E,1,12,0.05,0.0,M,0.0,M,*72
$GPGSA,A,3,01,02,03,04,05,06,07,08,09,10,11,12,1.0,1.0,1.0*30
$GPRMC,095216.774,A,4808.726,N,01708.066,E,038.9,094.7,080824,000.0,W*70
$GPGGA,095217.774,4808.725,N,01708.082,E,1,12,0.05,0.0,M,0.0,M,*7A
$GPGSA,A,3,01,02,03,04,05,06,07,08,09,10,11,12,1.0,1.0,1.0*30
$GPRMC,095217.774,A,4808.725,N,01708.082,E,038.9,094.7,080824,000.0,W*78
$GPGGA,095218.774,4808.724,N,01708.098,E,1,12,0.05,0.0,M,0.0,M,*7F
$GPGSA,A,3,01,02,03,04,05,06,07,08,09,10,11,12,1.0,1.0,1.0*30
$GPRMC,095218.774,A,4808.724,N,01708.098,E,038.9,094.7,080824,000.0,W*7D
$GPGGA,095219.774,4808.723,N,01708.114,E,1,12,0.05,0.0,M,0.0,M,*7C
$GPGSA,A,3,01,02,03,04,05,06,07,08,09,10,11,12,1.0,1.0,1.0*30
$GPRMC,095219.774,A,4808.723,N,01708.114,E,038.9,094.7,080824,000.0,W*7E
$GPGGA,095220.774,4808.722,N,01708.130,E,1,12,0.05,0.0,M,0.0,M,*71
$GPGSA,A,3,01,02,03,04,05,06,07,08,09,10,11,12,1.0,1.0,1.0*30
$GPRMC,095220.774,A,4808.722,N,01708.130,E,038.9,098.3,080824,000.0,W*7B
$GPGGA,095221.774,4808.721,N,01708.146,E,1,12,0.05,0.0,M,0.0,M,*72
$GPGSA,A,3,01,02,03,04,05,06,07,08,09,10,11,12,1.0,1.0,1.0*30
$GPRMC,095221.774,A,4808.721,N,01708.146,E,038.9,098.3,080824,000.0,W*78
$GPGGA,095222.774,4808.719,N,01708.162,E,1,12,0.05,0.0,M,0.0,M,*7C
$GPGSA,A,3,01,02,03,04,05,06,07,08,09,10,11,12,1.0,1.0,1.0*30
$GPRMC,095222.774,A,4808.719,N,01708.162,E,038.9,098.3,080824,000.0,W*76
$GPGGA,095223.774,4808.717,N,01708.178,E,1,12,0.05,0.0,M,0.0,M,*78
$GPGSA,A,3,01,02,03,04,05,06,07,08,09,10,11,12,1.0,1.0,1.0*30
$GPRMC,095223.774,A,4808.717,N,01708.178,E,038.9,098.3,080824,000.0,W*72
$GPGGA,095224.774,4808.716,N,01708.194,E,1,12,0.05,0.0,M,0.0,M,*7C
$GPGSA,A,3,01,02,03,04,05,06,07,08,09,10,11,12,1.0,1.0,1.0*30
$GPRMC,095224.774,A,4808.716,N,01708.194,E,038.9,102.5,080824,000.0,W*72
$GPGGA,095225.774,4808.714,N,01708.210,E,1,12,0.05,0.0,M,0.0,M,*70
$GPGSA,A,3,01,02,03,04,05,06,07,08,09,10,11,12,1.0,1.0,1.0*30
$GPRMC,095225.774,A,4808.714,N,01708.210,E,038.9,102.5,080824,000.0,W*7E
$GPGGA,095226.774,4808.711,N,01708.226,E,1,12,0.05,0.0,M,0.0,M,*73
$GPGSA,A,3,01,02,03,04,05,06,07,08,09,10,11,12,1.0,1.0,1.0*30
$GPRMC,095226.774,A,4808.711,N,01708.226,E,038.9,098.4,080824,000.0,W*7E
$GPGGA,095227.774,4808.710,N,01708.242,E,1,12,0.05,0.0,M,0.0,M,*71
$GPGSA,A,3,01,02,03,04,05,06,07,08,09,10,11,12,1.0,1.0,1.0*30
$GPRMC,095227.774,A,4808.710,N,01708.242,E,038.9,106.3,080824,000.0,W*7D
$GPGGA,095228.774,4808.707,N,01708.257,E,1,12,0.05,0.0,M,0.0,M,*7C
$GPGSA,A,3,01,02,03,04,05,06,07,08,09,10,11,12,1.0,1.0,1.0*30
$GPRMC,095228.774,A,4808.707,N,01708.257,E,038.9,185.5,080824,000.0,W*7D
$GPGGA,095229.774,4808.696,N,01708.256,E,1,12,0.05,0.0,M,0.0,M,*75
$GPGSA,A,3,01,02,03,04,05,06,07,08,09,10,11,12,1.0,1.0,1.0*30
$GPRMC,095229.774,A,4808.696,N,01708.256,E,038.9,160.8,080824,000.0,W*72
$GPGGA,095230.774,4808.686,N,01708.261,E,1,12,0.05,0.0,M,0.0,M,*78
$GPGSA,A,3,01,02,03,04,05,06,07,08,09,10,11,12,1.0,1.0,1.0*30
$GPRMC,095230.774,A,4808.686,N,01708.261,E,038.9,103.5,080824,000.0,W*77
$GPGGA,095231.774,4808.683,N,01708.277,E,1,12,0.05,0.0,M,0.0,M,*7B
$GPGSA,A,3,01,02,03,04,05,06,07,08,09,10,11,12,1.0,1.0,1.0*30
$GPRMC,095231.774,A,4808.683,N,01708.277,E,038.9,103.5,080824,000.0,W*74
$GPGGA,095232.774,4808.681,N,01708.292,E,1,12,0.05,0.0,M,0.0,M,*71
$GPGSA,A,3,01,02,03,04,05,06,07,08,09,10,11,12,1.0,1.0,1.0*30
$GPRMC,095232.774,A,4808.681,N,01708.292,E,038.9,103.5,080824,000.0,W*7E
$GPGGA,095233.774,4808.678,N,01708.308,E,1,12,0.05,0.0,M,0.0,M,*74
$GPGSA,A,3,01,02,03,04,05,06,07,08,09,10,11,12,1.0,1.0,1.0*30
$GPRMC,095233.774,A,4808.678,N,01708.308,E,038.9,103.5,080824,000.0,W*7B
$GPGGA,095234.774,4808.676,N,01708.324,E,1,12,0.05,0.0,M,0.0,M,*73
$GPGSA,A,3,01,02,03,04,05,06,07,08,09,10,11,12,1.0,1.0,1.0*30
$GPRMC,095234.774,A,4808.676,N,01708.324,E,038.9,092.6,080824,000.0,W*76
$GPGGA,095235.774,4808.675,N,01708.340,E,1,12,0.05,0.0,M,0.0,M,*73
$GPGSA,A,3,01,02,03,04,05,06,07,08,09,10,11,12,1.0,1.0,1.0*30
$GPRMC,095235.774,A,4808.675,N,01708.340,E,038.9,092.6,080824,000.0,W*76
$GPGGA,095236.774,4808.675,N,01708.356,E,1,12,0.05,0.0,M,0.0,M,*77
$GPGSA,A,3,01,02,03,04,05,06,07,08,09,10,11,12,1.0,1.0,1.0*30
$GPRMC,095236.774,A,4808.675,N,01708.356,E,038.9,092.6,080824,000.0,W*72
$GPGGA,095237.774,4808.674,N,01708.372,E,1,12,0.05,0.0,M,0.0,M,*71
$GPGSA,A,3,01,02,03,04,05,06,07,08,09,10,11,12,1.0,1.0,1.0*30
$GPRMC,095237.774,A,4808.674,N,01708.372,E,038.9,092.6,080824,000.0,W*74
$GPGGA,095238.774,4808.674,N,01708.388,E,1,12,0.05,0.0,M,0.0,M,*7B
$GPGSA,A,3,01,02,03,04,05,06,07,08,09,10,11,12,1.0,1.0,1.0*30
$GPRMC,095238.774,A,4808.674,N,01708.388,E,038.9,103.2,080824,000.0,W*73
$GPGGA,095239.774,4808.671,N,01708.404,E,1,12,0.05,0.0,M,0.0,M,*7C
$GPGSA,A,3,01,02,03,04,05,06,07,08,09,10,11,12,1.0,1.0,1.0*30
$GPRMC,095239.774,A,4808.671,N,01708.404,E,038.9,103.2,080824,000.0,W*74
$GPGGA,095240.774,4808.669,N,01708.420,E,1,12,0.05,0.0,M,0.0,M,*7D
$GPGSA,A,3,01,02,03,04,05,06,07,08,09,10,11,12,1.0,1.0,1.0*30
$GPRMC,095240.774,A,4808.669,N,01708.420,E,038.9,103.2,080824,000.0,W*75
