$GPGGA,095638.634,4808.529,N,01707.846,E,1,12,1.0,0.0,M,0.0,M,,*6F
$GPGSA,A,3,01,02,03,04,05,06,07,08,09,10,11,12,1.0,1.0,1.0*30
$GPRMC,095638.634,A,4808.529,N,01707.846,E,038.9,091.6,200623,000.0,W*72
$GPGGA,095639.634,4808.529,N,01707.862,E,1,12,1.0,0.0,M,0.0,M,,*68
$GPGSA,A,3,01,02,03,04,05,06,07,08,09,10,11,12,1.0,1.0,1.0*30
$GPRMC,095639.634,A,4808.529,N,01707.862,E,038.9,091.6,200623,000.0,W*75
$GPGGA,095640.634,4808.529,N,01707.878,E,1,12,1.0,0.0,M,0.0,M,,*6D
$GPGSA,A,3,01,02,03,04,05,06,07,08,09,10,11,12,1.0,1.0,1.0*30
$GPRMC,095640.634,A,4808.529,N,01707.878,E,038.9,091.6,200623,000.0,W*70
$GPGGA,095641.634,4808.528,N,01707.894,E,1,12,1.0,0.0,M,0.0,M,,*6F
$GPGSA,A,3,01,02,03,04,05,06,07,08,09,10,11,12,1.0,1.0,1.0*30
$GPRMC,095641.634,A,4808.528,N,01707.894,E,038.9,091.6,200623,000.0,W*72
$GPGGA,095642.634,4808.528,N,01707.911,E,1,12,1.0,0.0,M,0.0,M,,*60
$GPGSA,A,3,01,02,03,04,05,06,07,08,09,10,11,12,1.0,1.0,1.0*30
$GPRMC,095642.634,A,4808.528,N,01707.911,E,038.9,091.6,200623,000.0,W*7D
$GPGGA,095643.634,4808.527,N,01707.927,E,1,12,1.0,0.0,M,0.0,M,,*6B
$GPGSA,A,3,01,02,03,04,05,06,07,08,09,10,11,12,1.0,1.0,1.0*30
$GPRMC,095643.634,A,4808.527,N,01707.927,E,038.9,091.6,200623,000.0,W*76
$GPGGA,095644.634,4808.527,N,01707.943,E,1,12,1.0,0.0,M,0.0,M,,*6E
$GPGSA,A,3,01,02,03,04,05,06,07,08,09,10,11,12,1.0,1.0,1.0*30
$GPRMC,095644.634,A,4808.527,N,01707.943,E,038.9,091.6,200623,000.0,W*73
$GPGGA,095645.634,4808.526,N,01707.959,E,1,12,1.0,0.0,M,0.0,M,,*65
$GPGSA,A,3,01,02,03,04,05,06,07,08,09,10,11,12,1.0,1.0,1.0*30
$GPRMC,095645.634,A,4808.526,N,01707.959,E,038.9,091.6,200623,000.0,W*78
$GPGGA,095646.634,4808.526,N,01707.975,E,1,12,1.0,0.0,M,0.0,M,,*68
$GPGSA,A,3,01,02,03,04,05,06,07,08,09,10,11,12,1.0,1.0,1.0*30
$GPRMC,095646.634,A,4808.526,N,01707.975,E,038.9,091.6,200623,000.0,W*75
$GPGGA,095647.634,4808.525,N,01707.991,E,1,12,1.0,0.0,M,0.0,M,,*60
$GPGSA,A,3,01,02,03,04,05,06,07,08,09,10,11,12,1.0,1.0,1.0*30
$GPRMC,095647.634,A,4808.525,N,01707.991,E,038.9,091.6,200623,000.0,W*7D
$GPGGA,095648.634,4808.525,N,01708.007,E,1,12,1.0,0.0,M,0.0,M,,*66
$GPGSA,A,3,01,02,03,04,05,06,07,08,09,10,11,12,1.0,1.0,1.0*30
$GPRMC,095648.634,A,4808.525,N,01708.007,E,038.9,091.6,200623,000.0,W*7B
$GPGGA,095649.634,4808.525,N,01708.024,E,1,12,1.0,0.0,M,0.0,M,,*66
$GPGSA,A,3,01,02,03,04,05,06,07,08,09,10,11,12,1.0,1.0,1.0*30
$GPRMC,095649.634,A,4808.525,N,01708.024,E,038.9,091.6,200623,000.0,W*7B
$GPGGA,095650.634,4808.524,N,01708.040,E,1,12,1.0,0.0,M,0.0,M,,*6D
$GPGSA,A,3,01,02,03,04,05,06,07,08,09,10,11,12,1.0,1.0,1.0*30
$GPRMC,095650.634,A,4808.524,N,01708.040,E,038.9,091.6,200623,000.0,W*70
$GPGGA,095651.634,4808.524,N,01708.056,E,1,12,1.0,0.0,M,0.0,M,,*6B
$GPGSA,A,3,01,02,03,04,05,06,07,08,09,10,11,12,1.0,1.0,1.0*30
$GPRMC,095651.634,A,4808.524,N,01708.056,E,038.9,091.6,200623,000.0,W*76
$GPGGA,095652.634,4808.523,N,01708.072,E,1,12,1.0,0.0,M,0.0,M,,*69
$GPGSA,A,3,01,02,03,04,05,06,07,08,09,10,11,12,1.0,1.0,1.0*30
$GPRMC,095652.634,A,4808.523,N,01708.072,E,038.9,091.6,200623,000.0,W*74
$GPGGA,095653.634,4808.523,N,01708.088,E,1,12,1.0,0.0,M,0.0,M,,*6D
$GPGSA,A,3,01,02,03,04,05,06,07,08,09,10,11,12,1.0,1.0,1.0*30
$GPRMC,095653.634,A,4808.523,N,01708.088,E,038.9,091.6,200623,000.0,W*70
$GPGGA,095654.634,4808.522,N,01708.104,E,1,12,1.0,0.0,M,0.0,M,,*6E
$GPGSA,A,3,01,02,03,04,05,06,07,08,09,10,11,12,1.0,1.0,1.0*30
$GPRMC,095654.634,A,4808.522,N,01708.104,E,038.9,091.6,200623,000.0,W*73
$GPGGA,095655.634,4808.522,N,01708.121,E,1,12,1.0,0.0,M,0.0,M,,*68
$GPGSA,A,3,01,02,03,04,05,06,07,08,09,10,11,12,1.0,1.0,1.0*30
$GPRMC,095655.634,A,4808.522,N,01708.121,E,038.9,091.6,200623,000.0,W*75
$GPGGA,095656.634,4808.521,N,01708.137,E,1,12,1.0,0.0,M,0.0,M,,*6F
$GPGSA,A,3,01,02,03,04,05,06,07,08,09,10,11,12,1.0,1.0,1.0*30
$GPRMC,095656.634,A,4808.521,N,01708.137,E,038.9,091.6,200623,000.0,W*72
$GPGGA,095657.634,4808.521,N,01708.153,E,1,12,1.0,0.0,M,0.0,M,,*6C
$GPGSA,A,3,01,02,03,04,05,06,07,08,09,10,11,12,1.0,1.0,1.0*30
$GPRMC,095657.634,A,4808.521,N,01708.153,E,038.9,091.6,200623,000.0,W*71
$GPGGA,095658.634,4808.520,N,01708.169,E,1,12,1.0,0.0,M,0.0,M,,*6B
$GPGSA,A,3,01,02,03,04,05,06,07,08,09,10,11,12,1.0,1.0,1.0*30
$GPRMC,095658.634,A,4808.520,N,01708.169,E,038.9,091.6,200623,000.0,W*76
$GPGGA,095659.634,4808.520,N,01708.185,E,1,12,1.0,0.0,M,0.0,M,,*68
$GPGSA,A,3,01,02,03,04,05,06,07,08,09,10,11,12,1.0,1.0,1.0*30
$GPRMC,095659.634,A,4808.520,N,01708.185,E,038.9,091.6,200623,000.0,W*75
$GPGGA,095700.634,4808.520,N,01708.201,E,1,12,1.0,0.0,M,0.0,M,,*6A
$GPGSA,A,3,01,02,03,04,05,06,07,08,09,10,11,12,1.0,1.0,1.0*30
$GPRMC,095700.634,A,4808.520,N,01708.201,E,038.9,091.6,200623,000.0,W*77
$GPGGA,095701.634,4808.519,N,01708.218,E,1,12,1.0,0.0,M,0.0,M,,*69
$GPGSA,A,3,01,02,03,04,05,06,07,08,09,10,11,12,1.0,1.0,1.0*30
$GPRMC,095701.634,A,4808.519,N,01708.218,E,038.9,091.6,200623,000.0,W*74
$GPGGA,095702.634,4808.519,N,01708.234,E,1,12,1.0,0.0,M,0.0,M,,*64
$GPGSA,A,3,01,02,03,04,05,06,07,08,09,10,11,12,1.0,1.0,1.0*30
$GPRMC,095702.634,A,4808.519,N,01708.234,E,038.9,091.6,200623,000.0,W*79
$GPGGA,095703.634,4808.518,N,01708.250,E,1,12,1.0,0.0,M,0.0,M,,*66
$GPGSA,A,3,01,02,03,04,05,06,07,08,09,10,11,12,1.0,1.0,1.0*30
$GPRMC,095703.634,A,4808.518,N,01708.250,E,038.9,091.6,200623,000.0,W*7B
$GPGGA,095704.634,4808.518,N,01708.266,E,1,12,1.0,0.0,M,0.0,M,,*64
$GPGSA,A,3,01,02,03,04,05,06,07,08,09,10,11,12,1.0,1.0,1.0*30
$GPRMC,095704.634,A,4808.518,N,01708.266,E,038.9,091.6,200623,000.0,W*79
$GPGGA,095705.634,4808.517,N,01708.282,E,1,12,1.0,0.0,M,0.0,M,,*60
$GPGSA,A,3,01,02,03,04,05,06,07,08,09,10,11,12,1.0,1.0,1.0*30
$GPRMC,095705.634,A,4808.517,N,01708.282,E,038.9,091.6,200623,000.0,W*7D
$GPGGA,095706.634,4808.517,N,01708.298,E,1,12,1.0,0.0,M,0.0,M,,*68
$GPGSA,A,3,01,02,03,04,05,06,07,08,09,10,11,12,1.0,1.0,1.0*30
$GPRMC,095706.634,A,4808.517,N,01708.298,E,038.9,091.6,200623,000.0,W*75
$GPGGA,095707.634,4808.516,N,01708.314,E,1,12,1.0,0.0,M,0.0,M,,*6D
$GPGSA,A,3,01,02,03,04,05,06,07,08,09,10,11,12,1.0,1.0,1.0*30
$GPRMC,095707.634,A,4808.516,N,01708.314,E,038.9,091.6,200623,000.0,W*70
$GPGGA,095708.634,4808.516,N,01708.331,E,1,12,1.0,0.0,M,0.0,M,,*65
$GPGSA,A,3,01,02,03,04,05,06,07,08,09,10,11,12,1.0,1.0,1.0*30
$GPRMC,095708.634,A,4808.516,N,01708.331,E,038.9,091.6,200623,000.0,W*78
$GPGGA,095709.634,4808.516,N,01708.347,E,1,12,1.0,0.0,M,0.0,M,,*65
$GPGSA,A,3,01,02,03,04,05,06,07,08,09,10,11,12,1.0,1.0,1.0*30
$GPRMC,095709.634,A,4808.516,N,01708.347,E,038.9,091.6,200623,000.0,W*78
$GPGGA,095710.634,4808.515,N,01708.363,E,1,12,1.0,0.0,M,0.0,M,,*68
$GPGSA,A,3,01,02,03,04,05,06,07,08,09,10,11,12,1.0,1.0,1.0*30
$GPRMC,095710.634,A,4808.515,N,01708.363,E,038.9,091.6,200623,000.0,W*75
$GPGGA,095711.634,4808.515,N,01708.379,E,1,12,1.0,0.0,M,0.0,M,,*62
$GPGSA,A,3,01,02,03,04,05,06,07,08,09,10,11,12,1.0,1.0,1.0*30
$GPRMC,095711.634,A,4808.515,N,01708.379,E,038.9,091.6,200623,000.0,W*7F
$GPGGA,095712.634,4808.514,N,01708.395,E,1,12,1.0,0.0,M,0.0,M,,*62
$GPGSA,A,3,01,02,03,04,05,06,07,08,09,10,11,12,1.0,1.0,1.0*30
$GPRMC,095712.634,A,4808.514,N,01708.395,E,038.9,091.6,200623,000.0,W*7F
$GPGGA,095713.634,4808.514,N,01708.411,E,1,12,1.0,0.0,M,0.0,M,,*68
$GPGSA,A,3,01,02,03,04,05,06,07,08,09,10,11,12,1.0,1.0,1.0*30
$GPRMC,095713.634,A,4808.514,N,01708.411,E,038.9,091.6,200623,000.0,W*75
$GPGGA,095714.634,4808.513,N,01708.428,E,1,12,1.0,0.0,M,0.0,M,,*62
$GPGSA,A,3,01,02,03,04,05,06,07,08,09,10,11,12,1.0,1.0,1.0*30
$GPRMC,095714.634,A,4808.513,N,01708.428,E,038.9,091.6,200623,000.0,W*7F
$GPGGA,095715.634,4808.513,N,01708.444,E,1,12,1.0,0.0,M,0.0,M,,*69
$GPGSA,A,3,01,02,03,04,05,06,07,08,09,10,11,12,1.0,1.0,1.0*30
$GPRMC,095715.634,A,4808.513,N,01708.444,E,038.9,091.6,200623,000.0,W*74
