$GPGGA,123541.027,4806.548,N,01713.506,E,1,12,1.0,0.0,M,0.0,M,,*6F
$GPGSA,A,3,01,02,03,04,05,06,07,08,09,10,11,12,1.0,1.0,1.0*30
$GPRMC,123541.027,A,4806.548,N,01713.506,E,029.2,171.5,110222,000.0,W*72
$GPGGA,123542.027,4806.540,N,01713.507,E,1,12,1.0,0.0,M,0.0,M,,*65
$GPGSA,A,3,01,02,03,04,05,06,07,08,09,10,11,12,1.0,1.0,1.0*30
$GPRMC,123542.027,A,4806.540,N,01713.507,E,029.2,171.5,110222,000.0,W*78
$GPGGA,123543.027,4806.532,N,01713.509,E,1,12,1.0,0.0,M,0.0,M,,*6F
$GPGSA,A,3,01,02,03,04,05,06,07,08,09,10,11,12,1.0,1.0,1.0*30
$GPRMC,123543.027,A,4806.532,N,01713.509,E,029.2,171.5,110222,000.0,W*72
$GPGGA,123544.027,4806.524,N,01713.510,E,1,12,1.0,0.0,M,0.0,M,,*67
$GPGSA,A,3,01,02,03,04,05,06,07,08,09,10,11,12,1.0,1.0,1.0*30
$GPRMC,123544.027,A,4806.524,N,01713.510,E,029.2,171.5,110222,000.0,W*7A
$GPGGA,123545.027,4806.516,N,01713.511,E,1,12,1.0,0.0,M,0.0,M,,*66
$GPGSA,A,3,01,02,03,04,05,06,07,08,09,10,11,12,1.0,1.0,1.0*30
$GPRMC,123545.027,A,4806.516,N,01713.511,E,029.2,171.5,110222,000.0,W*7B
$GPGGA,123546.027,4806.508,N,01713.512,E,1,12,1.0,0.0,M,0.0,M,,*69
$GPGSA,A,3,01,02,03,04,05,06,07,08,09,10,11,12,1.0,1.0,1.0*30
$GPRMC,123546.027,A,4806.508,N,01713.512,E,029.2,171.5,110222,000.0,W*74
$GPGGA,123547.027,4806.500,N,01713.513,E,1,12,1.0,0.0,M,0.0,M,,*61
$GPGSA,A,3,01,02,03,04,05,06,07,08,09,10,11,12,1.0,1.0,1.0*30
$GPRMC,123547.027,A,4806.500,N,01713.513,E,029.2,175.0,110222,000.0,W*7D
$GPGGA,123548.027,4806.492,N,01713.514,E,1,12,1.0,0.0,M,0.0,M,,*63
$GPGSA,A,3,01,02,03,04,05,06,07,08,09,10,11,12,1.0,1.0,1.0*30
$GPRMC,123548.027,A,4806.492,N,01713.514,E,029.2,175.0,110222,000.0,W*7F
$GPGGA,123549.027,4806.484,N,01713.515,E,1,12,1.0,0.0,M,0.0,M,,*64
$GPGSA,A,3,01,02,03,04,05,06,07,08,09,10,11,12,1.0,1.0,1.0*30
$GPRMC,123549.027,A,4806.484,N,01713.515,E,029.2,175.0,110222,000.0,W*78
$GPGGA,123550.027,4806.476,N,01713.516,E,1,12,1.0,0.0,M,0.0,M,,*62
$GPGSA,A,3,01,02,03,04,05,06,07,08,09,10,11,12,1.0,1.0,1.0*30
$GPRMC,123550.027,A,4806.476,N,01713.516,E,029.2,162.7,110222,000.0,W*7F
$GPGGA,123551.027,4806.468,N,01713.518,E,1,12,1.0,0.0,M,0.0,M,,*62
$GPGSA,A,3,01,02,03,04,05,06,07,08,09,10,11,12,1.0,1.0,1.0*30
$GPRMC,123551.027,A,4806.468,N,01713.518,E,029.2,162.7,110222,000.0,W*7F
$GPGGA,123552.027,4806.460,N,01713.521,E,1,12,1.0,0.0,M,0.0,M,,*63
$GPGSA,A,3,01,02,03,04,05,06,07,08,09,10,11,12,1.0,1.0,1.0*30
$GPRMC,123552.027,A,4806.460,N,01713.521,E,029.2,137.6,110222,000.0,W*7F
$GPGGA,123553.027,4806.453,N,01713.527,E,1,12,1.0,0.0,M,0.0,M,,*64
$GPGSA,A,3,01,02,03,04,05,06,07,08,09,10,11,12,1.0,1.0,1.0*30
$GPRMC,123553.027,A,4806.453,N,01713.527,E,029.2,137.6,110222,000.0,W*78
$GPGGA,123554.027,4806.446,N,01713.533,E,1,12,1.0,0.0,M,0.0,M,,*62
$GPGSA,A,3,01,02,03,04,05,06,07,08,09,10,11,12,1.0,1.0,1.0*30
$GPRMC,123554.027,A,4806.446,N,01713.533,E,029.2,137.6,110222,000.0,W*7E
$GPGGA,123555.027,4806.439,N,01713.540,E,1,12,1.0,0.0,M,0.0,M,,*6F
$GPGSA,A,3,01,02,03,04,05,06,07,08,09,10,11,12,1.0,1.0,1.0*30
$GPRMC,123555.027,A,4806.439,N,01713.540,E,029.2,137.6,110222,000.0,W*73
$GPGGA,123556.027,4806.432,N,01713.546,E,1,12,1.0,0.0,M,0.0,M,,*61
$GPGSA,A,3,01,02,03,04,05,06,07,08,09,10,11,12,1.0,1.0,1.0*30
$GPRMC,123556.027,A,4806.432,N,01713.546,E,029.2,133.1,110222,000.0,W*7E
$GPGGA,123557.027,4806.426,N,01713.553,E,1,12,1.0,0.0,M,0.0,M,,*61
$GPGSA,A,3,01,02,03,04,05,06,07,08,09,10,11,12,1.0,1.0,1.0*30
$GPRMC,123557.027,A,4806.426,N,01713.553,E,029.2,133.1,110222,000.0,W*7E
$GPGGA,123558.027,4806.419,N,01713.560,E,1,12,1.0,0.0,M,0.0,M,,*62
$GPGSA,A,3,01,02,03,04,05,06,07,08,09,10,11,12,1.0,1.0,1.0*30
$GPRMC,123558.027,A,4806.419,N,01713.560,E,029.2,133.1,110222,000.0,W*7D
$GPGGA,123559.027,4806.413,N,01713.567,E,1,12,1.0,0.0,M,0.0,M,,*6E
$GPGSA,A,3,01,02,03,04,05,06,07,08,09,10,11,12,1.0,1.0,1.0*30
$GPRMC,123559.027,A,4806.413,N,01713.567,E,029.2,133.1,110222,000.0,W*71
$GPGGA,123600.027,4806.406,N,01713.574,E,1,12,1.0,0.0,M,0.0,M,,*67
$GPGSA,A,3,01,02,03,04,05,06,07,08,09,10,11,12,1.0,1.0,1.0*30
$GPRMC,123600.027,A,4806.406,N,01713.574,E,029.2,133.1,110222,000.0,W*78
$GPGGA,123601.027,4806.399,N,01713.581,E,1,12,1.0,0.0,M,0.0,M,,*6D
$GPGSA,A,3,01,02,03,04,05,06,07,08,09,10,11,12,1.0,1.0,1.0*30
$GPRMC,123601.027,A,4806.399,N,01713.581,E,029.2,133.1,110222,000.0,W*72
$GPGGA,123602.027,4806.393,N,01713.588,E,1,12,1.0,0.0,M,0.0,M,,*6D
$GPGSA,A,3,01,02,03,04,05,06,07,08,09,10,11,12,1.0,1.0,1.0*30
$GPRMC,123602.027,A,4806.393,N,01713.588,E,029.2,133.1,110222,000.0,W*72
$GPGGA,123603.027,4806.386,N,01713.595,E,1,12,1.0,0.0,M,0.0,M,,*64
$GPGSA,A,3,01,02,03,04,05,06,07,08,09,10,11,12,1.0,1.0,1.0*30
$GPRMC,123603.027,A,4806.386,N,01713.595,E,029.2,134.7,110222,000.0,W*7A
$GPGGA,123604.027,4806.380,N,01713.602,E,1,12,1.0,0.0,M,0.0,M,,*68
$GPGSA,A,3,01,02,03,04,05,06,07,08,09,10,11,12,1.0,1.0,1.0*30
$GPRMC,123604.027,A,4806.380,N,01713.602,E,029.2,134.7,110222,000.0,W*76
$GPGGA,123605.027,4806.373,N,01713.609,E,1,12,1.0,0.0,M,0.0,M,,*6E
$GPGSA,A,3,01,02,03,04,05,06,07,08,09,10,11,12,1.0,1.0,1.0*30
$GPRMC,123605.027,A,4806.373,N,01713.609,E,029.2,134.7,110222,000.0,W*70
$GPGGA,123606.027,4806.366,N,01713.616,E,1,12,1.0,0.0,M,0.0,M,,*67
$GPGSA,A,3,01,02,03,04,05,06,07,08,09,10,11,12,1.0,1.0,1.0*30
$GPRMC,123606.027,A,4806.366,N,01713.616,E,029.2,134.7,110222,000.0,W*79
$GPGGA,123607.027,4806.359,N,01713.622,E,1,12,1.0,0.0,M,0.0,M,,*6D
$GPGSA,A,3,01,02,03,04,05,06,07,08,09,10,11,12,1.0,1.0,1.0*30
$GPRMC,123607.027,A,4806.359,N,01713.622,E,029.2,134.7,110222,000.0,W*73
$GPGGA,123608.027,4806.353,N,01713.629,E,1,12,1.0,0.0,M,0.0,M,,*63
$GPGSA,A,3,01,02,03,04,05,06,07,08,09,10,11,12,1.0,1.0,1.0*30
$GPRMC,123608.027,A,4806.353,N,01713.629,E,029.2,134.7,110222,000.0,W*7D
$GPGGA,123609.027,4806.346,N,01713.636,E,1,12,1.0,0.0,M,0.0,M,,*68
$GPGSA,A,3,01,02,03,04,05,06,07,08,09,10,11,12,1.0,1.0,1.0*30
$GPRMC,123609.027,A,4806.346,N,01713.636,E,029.2,134.7,110222,000.0,W*76
$GPGGA,123610.027,4806.339,N,01713.643,E,1,12,1.0,0.0,M,0.0,M,,*6A
$GPGSA,A,3,01,02,03,04,05,06,07,08,09,10,11,12,1.0,1.0,1.0*30
$GPRMC,123610.027,A,4806.339,N,01713.643,E,029.2,133.3,110222,000.0,W*77
$GPGGA,123611.027,4806.333,N,01713.650,E,1,12,1.0,0.0,M,0.0,M,,*63
$GPGSA,A,3,01,02,03,04,05,06,07,08,09,10,11,12,1.0,1.0,1.0*30
$GPRMC,123611.027,A,4806.333,N,01713.650,E,029.2,133.3,110222,000.0,W*7E
$GPGGA,123612.027,4806.326,N,01713.657,E,1,12,1.0,0.0,M,0.0,M,,*63
$GPGSA,A,3,01,02,03,04,05,06,07,08,09,10,11,12,1.0,1.0,1.0*30
$GPRMC,123612.027,A,4806.326,N,01713.657,E,029.2,133.3,110222,000.0,W*7E
$GPGGA,123613.027,4806.320,N,01713.664,E,1,12,1.0,0.0,M,0.0,M,,*64
$GPGSA,A,3,01,02,03,04,05,06,07,08,09,10,11,12,1.0,1.0,1.0*30
$GPRMC,123613.027,A,4806.320,N,01713.664,E,029.2,133.3,110222,000.0,W*79
$GPGGA,123614.027,4806.313,N,01713.671,E,1,12,1.0,0.0,M,0.0,M,,*67
$GPGSA,A,3,01,02,03,04,05,06,07,08,09,10,11,12,1.0,1.0,1.0*30
$GPRMC,123614.027,A,4806.313,N,01713.671,E,029.2,133.3,110222,000.0,W*7A
$GPGGA,123615.027,4806.306,N,01713.678,E,1,12,1.0,0.0,M,0.0,M,,*6B
$GPGSA,A,3,01,02,03,04,05,06,07,08,09,10,11,12,1.0,1.0,1.0*30
$GPRMC,123615.027,A,4806.306,N,01713.678,E,029.2,133.3,110222,000.0,W*76
$GPGGA,123616.027,4806.300,N,01713.685,E,1,12,1.0,0.0,M,0.0,M,,*6C
$GPGSA,A,3,01,02,03,04,05,06,07,08,09,10,11,12,1.0,1.0,1.0*30
$GPRMC,123616.027,A,4806.300,N,01713.685,E,029.2,133.3,110222,000.0,W*71
$GPGGA,123617.027,4806.293,N,01713.692,E,1,12,1.0,0.0,M,0.0,M,,*60
$GPGSA,A,3,01,02,03,04,05,06,07,08,09,10,11,12,1.0,1.0,1.0*30
$GPRMC,123617.027,A,4806.293,N,01713.692,E,029.2,134.8,110222,000.0,W*71
$GPGGA,123618.027,4806.286,N,01713.699,E,1,12,1.0,0.0,M,0.0,M,,*60
$GPGSA,A,3,01,02,03,04,05,06,07,08,09,10,11,12,1.0,1.0,1.0*30
$GPRMC,123618.027,A,4806.286,N,01713.699,E,029.2,134.7,110222,000.0,W*7E
$GPGGA,123619.027,4806.280,N,01713.706,E,1,12,1.0,0.0,M,0.0,M,,*60
$GPGSA,A,3,01,02,03,04,05,06,07,08,09,10,11,12,1.0,1.0,1.0*30
$GPRMC,123619.027,A,4806.280,N,01713.706,E,029.2,134.7,110222,000.0,W*7E
$GPGGA,123620.027,4806.273,N,01713.712,E,1,12,1.0,0.0,M,0.0,M,,*63
$GPGSA,A,3,01,02,03,04,05,06,07,08,09,10,11,12,1.0,1.0,1.0*30
$GPRMC,123620.027,A,4806.273,N,01713.712,E,029.2,134.7,110222,000.0,W*7D
$GPGGA,123621.027,4806.266,N,01713.719,E,1,12,1.0,0.0,M,0.0,M,,*6D
$GPGSA,A,3,01,02,03,04,05,06,07,08,09,10,11,12,1.0,1.0,1.0*30
$GPRMC,123621.027,A,4806.266,N,01713.719,E,029.2,134.7,110222,000.0,W*73
$GPGGA,123622.027,4806.260,N,01713.726,E,1,12,1.0,0.0,M,0.0,M,,*64
$GPGSA,A,3,01,02,03,04,05,06,07,08,09,10,11,12,1.0,1.0,1.0*30
$GPRMC,123622.027,A,4806.260,N,01713.726,E,029.2,134.7,110222,000.0,W*7A
$GPGGA,123623.027,4806.253,N,01713.733,E,1,12,1.0,0.0,M,0.0,M,,*61
$GPGSA,A,3,01,02,03,04,05,06,07,08,09,10,11,12,1.0,1.0,1.0*30
$GPRMC,123623.027,A,4806.253,N,01713.733,E,029.2,134.7,110222,000.0,W*7F
$GPGGA,123624.027,4806.246,N,01713.739,E,1,12,1.0,0.0,M,0.0,M,,*68
$GPGSA,A,3,01,02,03,04,05,06,07,08,09,10,11,12,1.0,1.0,1.0*30
$GPRMC,123624.027,A,4806.246,N,01713.739,E,029.2,134.7,110222,000.0,W*76
