$GPGGA,152550.285,4809.819,N,01704.460,E,1,12,1.0,0.0,M,0.0,M,,*62
$GPGSA,A,3,01,02,03,04,05,06,07,08,09,10,11,12,1.0,1.0,1.0*30
$GPRMC,152550.285,A,4809.819,N,01704.460,E,027.2,318.0,211124,000.0,W*7E
$GPGGA,152551.285,4809.825,N,01704.452,E,1,12,1.0,0.0,M,0.0,M,,*6D
$GPGSA,A,3,01,02,03,04,05,06,07,08,09,10,11,12,1.0,1.0,1.0*30
$GPRMC,152551.285,A,4809.825,N,01704.452,E,027.2,318.0,211124,000.0,W*71
$GPGGA,152552.285,4809.830,N,01704.444,E,1,12,1.0,0.0,M,0.0,M,,*6D
$GPGSA,A,3,01,02,03,04,05,06,07,08,09,10,11,12,1.0,1.0,1.0*30
$GPRMC,152552.285,A,4809.830,N,01704.444,E,027.2,318.0,211124,000.0,W*71
$GPGGA,152553.285,4809.836,N,01704.437,E,1,12,1.0,0.0,M,0.0,M,,*6E
$GPGSA,A,3,01,02,03,04,05,06,07,08,09,10,11,12,1.0,1.0,1.0*30
$GPRMC,152553.285,A,4809.836,N,01704.437,E,027.2,318.0,211124,000.0,W*72
$GPGGA,152554.285,4809.841,N,01704.429,E,1,12,1.0,0.0,M,0.0,M,,*66
$GPGSA,A,3,01,02,03,04,05,06,07,08,09,10,11,12,1.0,1.0,1.0*30
$GPRMC,152554.285,A,4809.841,N,01704.429,E,027.2,318.0,211124,000.0,W*7A
$GPGGA,152555.285,4809.847,N,01704.422,E,1,12,1.0,0.0,M,0.0,M,,*6A
$GPGSA,A,3,01,02,03,04,05,06,07,08,09,10,11,12,1.0,1.0,1.0*30
$GPRMC,152555.285,A,4809.847,N,01704.422,E,027.2,318.0,211124,000.0,W*76
$GPGGA,152556.285,4809.853,N,01704.414,E,1,12,1.0,0.0,M,0.0,M,,*69
$GPGSA,A,3,01,02,03,04,05,06,07,08,09,10,11,12,1.0,1.0,1.0*30
$GPRMC,152556.285,A,4809.853,N,01704.414,E,027.2,318.0,211124,000.0,W*75
$GPGGA,152557.285,4809.858,N,01704.407,E,1,12,1.0,0.0,M,0.0,M,,*61
$GPGSA,A,3,01,02,03,04,05,06,07,08,09,10,11,12,1.0,1.0,1.0*30
$GPRMC,152557.285,A,4809.858,N,01704.407,E,027.2,318.0,211124,000.0,W*7D
$GPGGA,152558.285,4809.864,N,01704.399,E,1,12,1.0,0.0,M,0.0,M,,*61
$GPGSA,A,3,01,02,03,04,05,06,07,08,09,10,11,12,1.0,1.0,1.0*30
$GPRMC,152558.285,A,4809.864,N,01704.399,E,027.2,318.0,211124,000.0,W*7D
$GPGGA,152559.285,4809.869,N,01704.391,E,1,12,1.0,0.0,M,0.0,M,,*65
$GPGSA,A,3,01,02,03,04,05,06,07,08,09,10,11,12,1.0,1.0,1.0*30
$GPRMC,152559.285,A,4809.869,N,01704.391,E,027.2,318.0,211124,000.0,W*79
$GPGGA,152600.285,4809.875,N,01704.384,E,1,12,1.0,0.0,M,0.0,M,,*63
$GPGSA,A,3,01,02,03,04,05,06,07,08,09,10,11,12,1.0,1.0,1.0*30
$GPRMC,152600.285,A,4809.875,N,01704.384,E,027.2,318.0,211124,000.0,W*7F
$GPGGA,152601.285,4809.881,N,01704.376,E,1,12,1.0,0.0,M,0.0,M,,*64
$GPGSA,A,3,01,02,03,04,05,06,07,08,09,10,11,12,1.0,1.0,1.0*30
$GPRMC,152601.285,A,4809.881,N,01704.376,E,027.2,318.0,211124,000.0,W*78
$GPGGA,152602.285,4809.886,N,01704.369,E,1,12,1.0,0.0,M,0.0,M,,*6E
$GPGSA,A,3,01,02,03,04,05,06,07,08,09,10,11,12,1.0,1.0,1.0*30
$GPRMC,152602.285,A,4809.886,N,01704.369,E,027.2,318.0,211124,000.0,W*72
$GPGGA,152603.285,4809.892,N,01704.361,E,1,12,1.0,0.0,M,0.0,M,,*62
$GPGSA,A,3,01,02,03,04,05,06,07,08,09,10,11,12,1.0,1.0,1.0*30
$GPRMC,152603.285,A,4809.892,N,01704.361,E,027.2,318.0,211124,000.0,W*7E
$GPGGA,152604.285,4809.898,N,01704.353,E,1,12,1.0,0.0,M,0.0,M,,*6E
$GPGSA,A,3,01,02,03,04,05,06,07,08,09,10,11,12,1.0,1.0,1.0*30
$GPRMC,152604.285,A,4809.898,N,01704.353,E,027.2,314.8,211124,000.0,W*76
$GPGGA,152605.285,4809.903,N,01704.345,E,1,12,1.0,0.0,M,0.0,M,,*6B
$GPGSA,A,3,01,02,03,04,05,06,07,08,09,10,11,12,1.0,1.0,1.0*30
$GPRMC,152605.285,A,4809.903,N,01704.345,E,027.2,314.8,211124,000.0,W*73
$GPGGA,152606.285,4809.908,N,01704.337,E,1,12,1.0,0.0,M,0.0,M,,*66
$GPGSA,A,3,01,02,03,04,05,06,07,08,09,10,11,12,1.0,1.0,1.0*30
$GPRMC,152606.285,A,4809.908,N,01704.337,E,027.2,314.8,211124,000.0,W*7E
$GPGGA,152607.285,4809.914,N,01704.329,E,1,12,1.0,0.0,M,0.0,M,,*65
$GPGSA,A,3,01,02,03,04,05,06,07,08,09,10,11,12,1.0,1.0,1.0*30
$GPRMC,152607.285,A,4809.914,N,01704.329,E,027.2,314.8,211124,000.0,W*7D
$GPGGA,152608.285,4809.919,N,01704.321,E,1,12,1.0,0.0,M,0.0,M,,*6F
$GPGSA,A,3,01,02,03,04,05,06,07,08,09,10,11,12,1.0,1.0,1.0*30
$GPRMC,152608.285,A,4809.919,N,01704.321,E,027.2,314.8,211124,000.0,W*77
$GPGGA,152609.285,4809.924,N,01704.313,E,1,12,1.0,0.0,M,0.0,M,,*61
$GPGSA,A,3,01,02,03,04,05,06,07,08,09,10,11,12,1.0,1.0,1.0*30
$GPRMC,152609.285,A,4809.924,N,01704.313,E,027.2,314.8,211124,000.0,W*79
$GPGGA,152610.285,4809.929,N,01704.305,E,1,12,1.0,0.0,M,0.0,M,,*63
$GPGSA,A,3,01,02,03,04,05,06,07,08,09,10,11,12,1.0,1.0,1.0*30
$GPRMC,152610.285,A,4809.929,N,01704.305,E,027.2,314.8,211124,000.0,W*7B
$GPGGA,152611.285,4809.935,N,01704.297,E,1,12,1.0,0.0,M,0.0,M,,*65
$GPGSA,A,3,01,02,03,04,05,06,07,08,09,10,11,12,1.0,1.0,1.0*30
$GPRMC,152611.285,A,4809.935,N,01704.297,E,027.2,314.8,211124,000.0,W*7D
$GPGGA,152612.285,4809.940,N,01704.289,E,1,12,1.0,0.0,M,0.0,M,,*6B
$GPGSA,A,3,01,02,03,04,05,06,07,08,09,10,11,12,1.0,1.0,1.0*30
$GPRMC,152612.285,A,4809.940,N,01704.289,E,027.2,314.8,211124,000.0,W*73
$GPGGA,152613.285,4809.945,N,01704.281,E,1,12,1.0,0.0,M,0.0,M,,*67
$GPGSA,A,3,01,02,03,04,05,06,07,08,09,10,11,12,1.0,1.0,1.0*30
$GPRMC,152613.285,A,4809.945,N,01704.281,E,027.2,314.8,211124,000.0,W*7F
$GPGGA,152614.285,4809.951,N,01704.273,E,1,12,1.0,0.0,M,0.0,M,,*68
$GPGSA,A,3,01,02,03,04,05,06,07,08,09,10,11,12,1.0,1.0,1.0*30
$GPRMC,152614.285,A,4809.951,N,01704.273,E,027.2,314.8,211124,000.0,W*70
$GPGGA,152615.285,4809.956,N,01704.265,E,1,12,1.0,0.0,M,0.0,M,,*69
$GPGSA,A,3,01,02,03,04,05,06,07,08,09,10,11,12,1.0,1.0,1.0*30
$GPRMC,152615.285,A,4809.956,N,01704.265,E,027.2,314.8,211124,000.0,W*71
$GPGGA,152616.285,4809.961,N,01704.257,E,1,12,1.0,0.0,M,0.0,M,,*6F
$GPGSA,A,3,01,02,03,04,05,06,07,08,09,10,11,12,1.0,1.0,1.0*30
$GPRMC,152616.285,A,4809.961,N,01704.257,E,027.2,314.8,211124,000.0,W*77
$GPGGA,152617.285,4809.967,N,01704.249,E,1,12,1.0,0.0,M,0.0,M,,*67
$GPGSA,A,3,01,02,03,04,05,06,07,08,09,10,11,12,1.0,1.0,1.0*30
$GPRMC,152617.285,A,4809.967,N,01704.249,E,027.2,314.8,211124,000.0,W*7F
$GPGGA,152618.285,4809.972,N,01704.241,E,1,12,1.0,0.0,M,0.0,M,,*64
$GPGSA,A,3,01,02,03,04,05,06,07,08,09,10,11,12,1.0,1.0,1.0*30
$GPRMC,152618.285,A,4809.972,N,01704.241,E,027.2,314.8,211124,000.0,W*7C
$GPGGA,152619.285,4809.977,N,01704.233,E,1,12,1.0,0.0,M,0.0,M,,*65
$GPGSA,A,3,01,02,03,04,05,06,07,08,09,10,11,12,1.0,1.0,1.0*30
$GPRMC,152619.285,A,4809.977,N,01704.233,E,027.2,314.8,211124,000.0,W*7D
$GPGGA,152620.285,4809.983,N,01704.225,E,1,12,1.0,0.0,M,0.0,M,,*63
$GPGSA,A,3,01,02,03,04,05,06,07,08,09,10,11,12,1.0,1.0,1.0*30
$GPRMC,152620.285,A,4809.983,N,01704.225,E,027.2,314.8,211124,000.0,W*7B
$GPGGA,152621.285,4809.988,N,01704.217,E,1,12,1.0,0.0,M,0.0,M,,*68
$GPGSA,A,3,01,02,03,04,05,06,07,08,09,10,11,12,1.0,1.0,1.0*30
$GPRMC,152621.285,A,4809.988,N,01704.217,E,027.2,314.8,211124,000.0,W*70
$GPGGA,152622.285,4809.993,N,01704.209,E,1,12,1.0,0.0,M,0.0,M,,*6E
$GPGSA,A,3,01,02,03,04,05,06,07,08,09,10,11,12,1.0,1.0,1.0*30
$GPRMC,152622.285,A,4809.993,N,01704.209,E,027.2,315.4,211124,000.0,W*7B
$GPGGA,152623.285,4809.999,N,01704.201,E,1,12,1.0,0.0,M,0.0,M,,*6D
$GPGSA,A,3,01,02,03,04,05,06,07,08,09,10,11,12,1.0,1.0,1.0*30
$GPRMC,152623.285,A,4809.999,N,01704.201,E,027.2,315.4,211124,000.0,W*78
$GPGGA,152624.285,4810.004,N,01704.193,E,1,12,1.0,0.0,M,0.0,M,,*67
$GPGSA,A,3,01,02,03,04,05,06,07,08,09,10,11,12,1.0,1.0,1.0*30
$GPRMC,152624.285,A,4810.004,N,01704.193,E,027.2,315.4,211124,000.0,W*72
$GPGGA,152625.285,4810.010,N,01704.185,E,1,12,1.0,0.0,M,0.0,M,,*64
$GPGSA,A,3,01,02,03,04,05,06,07,08,09,10,11,12,1.0,1.0,1.0*30
$GPRMC,152625.285,A,4810.010,N,01704.185,E,027.2,315.4,211124,000.0,W*71
$GPGGA,152626.285,4810.015,N,01704.177,E,1,12,1.0,0.0,M,0.0,M,,*6F
$GPGSA,A,3,01,02,03,04,05,06,07,08,09,10,11,12,1.0,1.0,1.0*30
$GPRMC,152626.285,A,4810.015,N,01704.177,E,027.2,315.4,211124,000.0,W*7A
$GPGGA,152627.285,4810.020,N,01704.169,E,1,12,1.0,0.0,M,0.0,M,,*67
$GPGSA,A,3,01,02,03,04,05,06,07,08,09,10,11,12,1.0,1.0,1.0*30
$GPRMC,152627.285,A,4810.020,N,01704.169,E,027.2,315.4,211124,000.0,W*72
$GPGGA,152628.285,4810.026,N,01704.161,E,1,12,1.0,0.0,M,0.0,M,,*66
$GPGSA,A,3,01,02,03,04,05,06,07,08,09,10,11,12,1.0,1.0,1.0*30
$GPRMC,152628.285,A,4810.026,N,01704.161,E,027.2,315.4,211124,000.0,W*73
$GPGGA,152629.285,4810.031,N,01704.153,E,1,12,1.0,0.0,M,0.0,M,,*60
$GPGSA,A,3,01,02,03,04,05,06,07,08,09,10,11,12,1.0,1.0,1.0*30
$GPRMC,152629.285,A,4810.031,N,01704.153,E,027.2,315.4,211124,000.0,W*75
$GPGGA,152630.285,4810.036,N,01704.145,E,1,12,1.0,0.0,M,0.0,M,,*68
$GPGSA,A,3,01,02,03,04,05,06,07,08,09,10,11,12,1.0,1.0,1.0*30
$GPRMC,152630.285,A,4810.036,N,01704.145,E,027.2,315.4,211124,000.0,W*7D
$GPGGA,152631.285,4810.042,N,01704.137,E,1,12,1.0,0.0,M,0.0,M,,*6F
$GPGSA,A,3,01,02,03,04,05,06,07,08,09,10,11,12,1.0,1.0,1.0*30
$GPRMC,152631.285,A,4810.042,N,01704.137,E,027.2,315.4,211124,000.0,W*7A
$GPGGA,152632.285,4810.047,N,01704.129,E,1,12,1.0,0.0,M,0.0,M,,*66
$GPGSA,A,3,01,02,03,04,05,06,07,08,09,10,11,12,1.0,1.0,1.0*30
$GPRMC,152632.285,A,4810.047,N,01704.129,E,027.2,315.4,211124,000.0,W*73
$GPGGA,152633.285,4810.053,N,01704.121,E,1,12,1.0,0.0,M,0.0,M,,*6A
$GPGSA,A,3,01,02,03,04,05,06,07,08,09,10,11,12,1.0,1.0,1.0*30
$GPRMC,152633.285,A,4810.053,N,01704.121,E,027.2,315.4,211124,000.0,W*7F
$GPGGA,152634.285,4810.058,N,01704.113,E,1,12,1.0,0.0,M,0.0,M,,*67
$GPGSA,A,3,01,02,03,04,05,06,07,08,09,10,11,12,1.0,1.0,1.0*30
$GPRMC,152634.285,A,4810.058,N,01704.113,E,027.2,315.4,211124,000.0,W*72
$GPGGA,152635.285,4810.063,N,01704.105,E,1,12,1.0,0.0,M,0.0,M,,*69
$GPGSA,A,3,01,02,03,04,05,06,07,08,09,10,11,12,1.0,1.0,1.0*30
$GPRMC,152635.285,A,4810.063,N,01704.105,E,027.2,315.4,211124,000.0,W*7C
$GPGGA,152636.285,4810.069,N,01704.098,E,1,12,1.0,0.0,M,0.0,M,,*65
$GPGSA,A,3,01,02,03,04,05,06,07,08,09,10,11,12,1.0,1.0,1.0*30
$GPRMC,152636.285,A,4810.069,N,01704.098,E,027.2,315.4,211124,000.0,W*70
$GPGGA,152637.285,4810.074,N,01704.090,E,1,12,1.0,0.0,M,0.0,M,,*60
$GPGSA,A,3,01,02,03,04,05,06,07,08,09,10,11,12,1.0,1.0,1.0*30
$GPRMC,152637.285,A,4810.074,N,01704.090,E,027.2,315.4,211124,000.0,W*75
$GPGGA,152638.285,4810.079,N,01704.082,E,1,12,1.0,0.0,M,0.0,M,,*61
$GPGSA,A,3,01,02,03,04,05,06,07,08,09,10,11,12,1.0,1.0,1.0*30
$GPRMC,152638.285,A,4810.079,N,01704.082,E,027.2,315.4,211124,000.0,W*74
$GPGGA,152639.285,4810.085,N,01704.074,E,1,12,1.0,0.0,M,0.0,M,,*6A
$GPGSA,A,3,01,02,03,04,05,06,07,08,09,10,11,12,1.0,1.0,1.0*30
$GPRMC,152639.285,A,4810.085,N,01704.074,E,027.2,317.5,211124,000.0,W*7C
$GPGGA,152640.285,4810.090,N,01704.066,E,1,12,1.0,0.0,M,0.0,M,,*63
$GPGSA,A,3,01,02,03,04,05,06,07,08,09,10,11,12,1.0,1.0,1.0*30
$GPRMC,152640.285,A,4810.090,N,01704.066,E,027.2,317.5,211124,000.0,W*75
$GPGGA,152641.285,4810.096,N,01704.058,E,1,12,1.0,0.0,M,0.0,M,,*69
$GPGSA,A,3,01,02,03,04,05,06,07,08,09,10,11,12,1.0,1.0,1.0*30
$GPRMC,152641.285,A,4810.096,N,01704.058,E,027.2,317.5,211124,000.0,W*7F
$GPGGA,152642.285,4810.102,N,01704.051,E,1,12,1.0,0.0,M,0.0,M,,*6F
$GPGSA,A,3,01,02,03,04,05,06,07,08,09,10,11,12,1.0,1.0,1.0*30
$GPRMC,152642.285,A,4810.102,N,01704.051,E,027.2,317.5,211124,000.0,W*79
$GPGGA,152643.285,4810.107,N,01704.043,E,1,12,1.0,0.0,M,0.0,M,,*68
$GPGSA,A,3,01,02,03,04,05,06,07,08,09,10,11,12,1.0,1.0,1.0*30
$GPRMC,152643.285,A,4810.107,N,01704.043,E,027.2,317.5,211124,000.0,W*7E
$GPGGA,152644.285,4810.113,N,01704.035,E,1,12,1.0,0.0,M,0.0,M,,*6B
$GPGSA,A,3,01,02,03,04,05,06,07,08,09,10,11,12,1.0,1.0,1.0*30
$GPRMC,152644.285,A,4810.113,N,01704.035,E,027.2,317.5,211124,000.0,W*7D
$GPGGA,152645.285,4810.118,N,01704.028,E,1,12,1.0,0.0,M,0.0,M,,*6D
$GPGSA,A,3,01,02,03,04,05,06,07,08,09,10,11,12,1.0,1.0,1.0*30
$GPRMC,152645.285,A,4810.118,N,01704.028,E,027.2,317.5,211124,000.0,W*7B
$GPGGA,152646.285,4810.124,N,01704.020,E,1,12,1.0,0.0,M,0.0,M,,*69
$GPGSA,A,3,01,02,03,04,05,06,07,08,09,10,11,12,1.0,1.0,1.0*30
$GPRMC,152646.285,A,4810.124,N,01704.020,E,027.2,317.5,211124,000.0,W*7F
$GPGGA,152647.285,4810.129,N,01704.012,E,1,12,1.0,0.0,M,0.0,M,,*64
$GPGSA,A,3,01,02,03,04,05,06,07,08,09,10,11,12,1.0,1.0,1.0*30
$GPRMC,152647.285,A,4810.129,N,01704.012,E,027.2,317.5,211124,000.0,W*72
$GPGGA,152648.285,4810.135,N,01704.005,E,1,12,1.0,0.0,M,0.0,M,,*60
$GPGSA,A,3,01,02,03,04,05,06,07,08,09,10,11,12,1.0,1.0,1.0*30
$GPRMC,152648.285,A,4810.135,N,01704.005,E,027.2,321.5,211124,000.0,W*73
$GPGGA,152649.285,4810.141,N,01703.998,E,1,12,1.0,0.0,M,0.0,M,,*68
$GPGSA,A,3,01,02,03,04,05,06,07,08,09,10,11,12,1.0,1.0,1.0*30
$GPRMC,152649.285,A,4810.141,N,01703.998,E,027.2,321.5,211124,000.0,W*7B
$GPGGA,152650.285,4810.147,N,01703.991,E,1,12,1.0,0.0,M,0.0,M,,*6F
$GPGSA,A,3,01,02,03,04,05,06,07,08,09,10,11,12,1.0,1.0,1.0*30
$GPRMC,152650.285,A,4810.147,N,01703.991,E,027.2,321.5,211124,000.0,W*7C
$GPGGA,152651.285,4810.153,N,01703.984,E,1,12,1.0,0.0,M,0.0,M,,*6F
$GPGSA,A,3,01,02,03,04,05,06,07,08,09,10,11,12,1.0,1.0,1.0*30
$GPRMC,152651.285,A,4810.153,N,01703.984,E,027.2,321.5,211124,000.0,W*7C
$GPGGA,152652.285,4810.159,N,01703.977,E,1,12,1.0,0.0,M,0.0,M,,*6A
$GPGSA,A,3,01,02,03,04,05,06,07,08,09,10,11,12,1.0,1.0,1.0*30
$GPRMC,152652.285,A,4810.159,N,01703.977,E,027.2,321.5,211124,000.0,W*79
$GPGGA,152653.285,4810.165,N,01703.970,E,1,12,1.0,0.0,M,0.0,M,,*63
$GPGSA,A,3,01,02,03,04,05,06,07,08,09,10,11,12,1.0,1.0,1.0*30
$GPRMC,152653.285,A,4810.165,N,01703.970,E,027.2,321.5,211124,000.0,W*70
$GPGGA,152654.285,4810.170,N,01703.962,E,1,12,1.0,0.0,M,0.0,M,,*63
$GPGSA,A,3,01,02,03,04,05,06,07,08,09,10,11,12,1.0,1.0,1.0*30
$GPRMC,152654.285,A,4810.170,N,01703.962,E,027.2,321.5,211124,000.0,W*70
$GPGGA,152655.285,4810.176,N,01703.955,E,1,12,1.0,0.0,M,0.0,M,,*60
$GPGSA,A,3,01,02,03,04,05,06,07,08,09,10,11,12,1.0,1.0,1.0*30
$GPRMC,152655.285,A,4810.176,N,01703.955,E,027.2,321.5,211124,000.0,W*73
$GPGGA,152656.285,4810.182,N,01703.948,E,1,12,1.0,0.0,M,0.0,M,,*64
$GPGSA,A,3,01,02,03,04,05,06,07,08,09,10,11,12,1.0,1.0,1.0*30
$GPRMC,152656.285,A,4810.182,N,01703.948,E,027.2,321.5,211124,000.0,W*77
$GPGGA,152657.285,4810.188,N,01703.941,E,1,12,1.0,0.0,M,0.0,M,,*66
$GPGSA,A,3,01,02,03,04,05,06,07,08,09,10,11,12,1.0,1.0,1.0*30
$GPRMC,152657.285,A,4810.188,N,01703.941,E,027.2,321.5,211124,000.0,W*75
$GPGGA,152658.285,4810.194,N,01703.934,E,1,12,1.0,0.0,M,0.0,M,,*66
$GPGSA,A,3,01,02,03,04,05,06,07,08,09,10,11,12,1.0,1.0,1.0*30
$GPRMC,152658.285,A,4810.194,N,01703.934,E,027.2,321.5,211124,000.0,W*75
