$GPGGA,083912.135,4844.971,N,01751.628,E,1,12,1.0,0.0,M,0.0,M,,*65
$GPGSA,A,3,01,02,03,04,05,06,07,08,09,10,11,12,1.0,1.0,1.0*30
$GPRMC,083912.135,A,4844.971,N,01751.628,E,077.8,190.3,050925,000.0,W*79
$GPGGA,083913.135,4844.950,N,01751.622,E,1,12,1.0,0.0,M,0.0,M,,*6D
$GPGSA,A,3,01,02,03,04,05,06,07,08,09,10,11,12,1.0,1.0,1.0*30
$GPRMC,083913.135,A,4844.950,N,01751.622,E,077.8,188.7,050925,000.0,W*7C
$GPGGA,083914.135,4844.929,N,01751.617,E,1,12,1.0,0.0,M,0.0,M,,*62
$GPGSA,A,3,01,02,03,04,05,06,07,08,09,10,11,12,1.0,1.0,1.0*30
$GPRMC,083914.135,A,4844.929,N,01751.617,E,077.8,188.7,050925,000.0,W*73
$GPGGA,083915.135,4844.907,N,01751.612,E,1,12,1.0,0.0,M,0.0,M,,*6A
$GPGSA,A,3,01,02,03,04,05,06,07,08,09,10,11,12,1.0,1.0,1.0*30
$GPRMC,083915.135,A,4844.907,N,01751.612,E,077.8,188.7,050925,000.0,W*7B
$GPGGA,083916.135,4844.886,N,01751.607,E,1,12,1.0,0.0,M,0.0,M,,*65
$GPGSA,A,3,01,02,03,04,05,06,07,08,09,10,11,12,1.0,1.0,1.0*30
$GPRMC,083916.135,A,4844.886,N,01751.607,E,077.8,188.7,050925,000.0,W*74
$GPGGA,083917.135,4844.865,N,01751.602,E,1,12,1.0,0.0,M,0.0,M,,*6C
$GPGSA,A,3,01,02,03,04,05,06,07,08,09,10,11,12,1.0,1.0,1.0*30
$GPRMC,083917.135,A,4844.865,N,01751.602,E,077.8,188.7,050925,000.0,W*7D
$GPGGA,083918.135,4844.843,N,01751.597,E,1,12,1.0,0.0,M,0.0,M,,*68
$GPGSA,A,3,01,02,03,04,05,06,07,08,09,10,11,12,1.0,1.0,1.0*30
$GPRMC,083918.135,A,4844.843,N,01751.597,E,077.8,188.7,050925,000.0,W*79
$GPGGA,083919.135,4844.822,N,01751.592,E,1,12,1.0,0.0,M,0.0,M,,*6B
$GPGSA,A,3,01,02,03,04,05,06,07,08,09,10,11,12,1.0,1.0,1.0*30
$GPRMC,083919.135,A,4844.822,N,01751.592,E,077.8,188.7,050925,000.0,W*7A
$GPGGA,083920.135,4844.801,N,01751.587,E,1,12,1.0,0.0,M,0.0,M,,*64
$GPGSA,A,3,01,02,03,04,05,06,07,08,09,10,11,12,1.0,1.0,1.0*30
$GPRMC,083920.135,A,4844.801,N,01751.587,E,077.8,188.7,050925,000.0,W*75
$GPGGA,083921.135,4844.779,N,01751.583,E,1,12,1.0,0.0,M,0.0,M,,*61
$GPGSA,A,3,01,02,03,04,05,06,07,08,09,10,11,12,1.0,1.0,1.0*30
$GPRMC,083921.135,A,4844.779,N,01751.583,E,077.8,176.9,050925,000.0,W*7F
$GPGGA,083922.135,4844.758,N,01751.584,E,1,12,1.0,0.0,M,0.0,M,,*66
$GPGSA,A,3,01,02,03,04,05,06,07,08,09,10,11,12,1.0,1.0,1.0*30
$GPRMC,083922.135,A,4844.758,N,01751.584,E,077.8,176.9,050925,000.0,W*78
$GPGGA,083923.135,4844.736,N,01751.586,E,1,12,1.0,0.0,M,0.0,M,,*6D
$GPGSA,A,3,01,02,03,04,05,06,07,08,09,10,11,12,1.0,1.0,1.0*30
$GPRMC,083923.135,A,4844.736,N,01751.586,E,077.8,176.9,050925,000.0,W*73
$GPGGA,083924.135,4844.715,N,01751.588,E,1,12,1.0,0.0,M,0.0,M,,*65
$GPGSA,A,3,01,02,03,04,05,06,07,08,09,10,11,12,1.0,1.0,1.0*30
$GPRMC,083924.135,A,4844.715,N,01751.588,E,077.8,176.9,050925,000.0,W*7B
$GPGGA,083925.135,4844.693,N,01751.590,E,1,12,1.0,0.0,M,0.0,M,,*62
$GPGSA,A,3,01,02,03,04,05,06,07,08,09,10,11,12,1.0,1.0,1.0*30
$GPRMC,083925.135,A,4844.693,N,01751.590,E,077.8,176.9,050925,000.0,W*7C
$GPGGA,083926.135,4844.672,N,01751.591,E,1,12,1.0,0.0,M,0.0,M,,*6F
$GPGSA,A,3,01,02,03,04,05,06,07,08,09,10,11,12,1.0,1.0,1.0*30
$GPRMC,083926.135,A,4844.672,N,01751.591,E,077.8,176.9,050925,000.0,W*71
$GPGGA,083927.135,4844.650,N,01751.593,E,1,12,1.0,0.0,M,0.0,M,,*6C
$GPGSA,A,3,01,02,03,04,05,06,07,08,09,10,11,12,1.0,1.0,1.0*30
$GPRMC,083927.135,A,4844.650,N,01751.593,E,077.8,176.9,050925,000.0,W*72
$GPGGA,083928.135,4844.628,N,01751.595,E,1,12,1.0,0.0,M,0.0,M,,*6A
$GPGSA,A,3,01,02,03,04,05,06,07,08,09,10,11,12,1.0,1.0,1.0*30
$GPRMC,083928.135,A,4844.628,N,01751.595,E,077.8,176.9,050925,000.0,W*74
$GPGGA,083929.135,4844.607,N,01751.597,E,1,12,1.0,0.0,M,0.0,M,,*64
$GPGSA,A,3,01,02,03,04,05,06,07,08,09,10,11,12,1.0,1.0,1.0*30
$GPRMC,083929.135,A,4844.607,N,01751.597,E,077.8,168.6,050925,000.0,W*7A
$GPGGA,083930.135,4844.586,N,01751.603,E,1,12,1.0,0.0,M,0.0,M,,*68
$GPGSA,A,3,01,02,03,04,05,06,07,08,09,10,11,12,1.0,1.0,1.0*30
$GPRMC,083930.135,A,4844.586,N,01751.603,E,077.8,168.6,050925,000.0,W*76
$GPGGA,083931.135,4844.565,N,01751.610,E,1,12,1.0,0.0,M,0.0,M,,*66
$GPGSA,A,3,01,02,03,04,05,06,07,08,09,10,11,12,1.0,1.0,1.0*30
$GPRMC,083931.135,A,4844.565,N,01751.610,E,077.8,168.6,050925,000.0,W*78
$GPGGA,083932.135,4844.543,N,01751.616,E,1,12,1.0,0.0,M,0.0,M,,*67
$GPGSA,A,3,01,02,03,04,05,06,07,08,09,10,11,12,1.0,1.0,1.0*30
$GPRMC,083932.135,A,4844.543,N,01751.616,E,077.8,168.6,050925,000.0,W*79
$GPGGA,083933.135,4844.522,N,01751.623,E,1,12,1.0,0.0,M,0.0,M,,*67
$GPGSA,A,3,01,02,03,04,05,06,07,08,09,10,11,12,1.0,1.0,1.0*30
$GPRMC,083933.135,A,4844.522,N,01751.623,E,077.8,168.6,050925,000.0,W*79
$GPGGA,083934.135,4844.501,N,01751.629,E,1,12,1.0,0.0,M,0.0,M,,*6B
$GPGSA,A,3,01,02,03,04,05,06,07,08,09,10,11,12,1.0,1.0,1.0*30
$GPRMC,083934.135,A,4844.501,N,01751.629,E,077.8,168.6,050925,000.0,W*75
$GPGGA,083935.135,4844.480,N,01751.636,E,1,12,1.0,0.0,M,0.0,M,,*6C
$GPGSA,A,3,01,02,03,04,05,06,07,08,09,10,11,12,1.0,1.0,1.0*30
$GPRMC,083935.135,A,4844.480,N,01751.636,E,077.8,163.6,050925,000.0,W*79
$GPGGA,083936.135,4844.459,N,01751.645,E,1,12,1.0,0.0,M,0.0,M,,*6F
$GPGSA,A,3,01,02,03,04,05,06,07,08,09,10,11,12,1.0,1.0,1.0*30
$GPRMC,083936.135,A,4844.459,N,01751.645,E,077.8,163.6,050925,000.0,W*7A
$GPGGA,083937.135,4844.439,N,01751.654,E,1,12,1.0,0.0,M,0.0,M,,*68
$GPGSA,A,3,01,02,03,04,05,06,07,08,09,10,11,12,1.0,1.0,1.0*30
$GPRMC,083937.135,A,4844.439,N,01751.654,E,077.8,163.6,050925,000.0,W*7D
$GPGGA,083938.135,4844.418,N,01751.663,E,1,12,1.0,0.0,M,0.0,M,,*60
$GPGSA,A,3,01,02,03,04,05,06,07,08,09,10,11,12,1.0,1.0,1.0*30
$GPRMC,083938.135,A,4844.418,N,01751.663,E,077.8,163.6,050925,000.0,W*75
$GPGGA,083939.135,4844.397,N,01751.673,E,1,12,1.0,0.0,M,0.0,M,,*60
$GPGSA,A,3,01,02,03,04,05,06,07,08,09,10,11,12,1.0,1.0,1.0*30
$GPRMC,083939.135,A,4844.397,N,01751.673,E,077.8,163.6,050925,000.0,W*75
$GPGGA,083940.135,4844.376,N,01751.682,E,1,12,1.0,0.0,M,0.0,M,,*6F
$GPGSA,A,3,01,02,03,04,05,06,07,08,09,10,11,12,1.0,1.0,1.0*30
$GPRMC,083940.135,A,4844.376,N,01751.682,E,077.8,163.6,050925,000.0,W*7A
$GPGGA,083941.135,4844.356,N,01751.691,E,1,12,1.0,0.0,M,0.0,M,,*6E
$GPGSA,A,3,01,02,03,04,05,06,07,08,09,10,11,12,1.0,1.0,1.0*30
$GPRMC,083941.135,A,4844.356,N,01751.691,E,077.8,163.6,050925,000.0,W*7B
$GPGGA,083942.135,4844.335,N,01751.700,E,1,12,1.0,0.0,M,0.0,M,,*61
$GPGSA,A,3,01,02,03,04,05,06,07,08,09,10,11,12,1.0,1.0,1.0*30
$GPRMC,083942.135,A,4844.335,N,01751.700,E,077.8,163.6,050925,000.0,W*74
$GPGGA,083943.135,4844.314,N,01751.710,E,1,12,1.0,0.0,M,0.0,M,,*62
$GPGSA,A,3,01,02,03,04,05,06,07,08,09,10,11,12,1.0,1.0,1.0*30
$GPRMC,083943.135,A,4844.314,N,01751.710,E,077.8,153.3,050925,000.0,W*71
$GPGGA,083944.135,4844.295,N,01751.724,E,1,12,1.0,0.0,M,0.0,M,,*6A
$GPGSA,A,3,01,02,03,04,05,06,07,08,09,10,11,12,1.0,1.0,1.0*30
$GPRMC,083944.135,A,4844.295,N,01751.724,E,077.8,153.3,050925,000.0,W*79
$GPGGA,083945.135,4844.276,N,01751.739,E,1,12,1.0,0.0,M,0.0,M,,*6A
$GPGSA,A,3,01,02,03,04,05,06,07,08,09,10,11,12,1.0,1.0,1.0*30
$GPRMC,083945.135,A,4844.276,N,01751.739,E,077.8,153.3,050925,000.0,W*79
$GPGGA,083946.135,4844.256,N,01751.754,E,1,12,1.0,0.0,M,0.0,M,,*60
$GPGSA,A,3,01,02,03,04,05,06,07,08,09,10,11,12,1.0,1.0,1.0*30
$GPRMC,083946.135,A,4844.256,N,01751.754,E,077.8,153.3,050925,000.0,W*73
$GPGGA,083947.135,4844.237,N,01751.769,E,1,12,1.0,0.0,M,0.0,M,,*68
$GPGSA,A,3,01,02,03,04,05,06,07,08,09,10,11,12,1.0,1.0,1.0*30
$GPRMC,083947.135,A,4844.237,N,01751.769,E,077.8,153.3,050925,000.0,W*7B
$GPGGA,083948.135,4844.218,N,01751.783,E,1,12,1.0,0.0,M,0.0,M,,*6E
$GPGSA,A,3,01,02,03,04,05,06,07,08,09,10,11,12,1.0,1.0,1.0*30
$GPRMC,083948.135,A,4844.218,N,01751.783,E,077.8,153.3,050925,000.0,W*7D
$GPGGA,083949.135,4844.199,N,01751.798,E,1,12,1.0,0.0,M,0.0,M,,*6F
$GPGSA,A,3,01,02,03,04,05,06,07,08,09,10,11,12,1.0,1.0,1.0*30
$GPRMC,083949.135,A,4844.199,N,01751.798,E,077.8,153.3,050925,000.0,W*7C
$GPGGA,083950.135,4844.179,N,01751.813,E,1,12,1.0,0.0,M,0.0,M,,*65
$GPGSA,A,3,01,02,03,04,05,06,07,08,09,10,11,12,1.0,1.0,1.0*30
$GPRMC,083950.135,A,4844.179,N,01751.813,E,077.8,153.3,050925,000.0,W*76
$GPGGA,083951.135,4844.160,N,01751.827,E,1,12,1.0,0.0,M,0.0,M,,*6B
$GPGSA,A,3,01,02,03,04,05,06,07,08,09,10,11,12,1.0,1.0,1.0*30
$GPRMC,083951.135,A,4844.160,N,01751.827,E,077.8,143.3,050925,000.0,W*79
$GPGGA,083952.135,4844.143,N,01751.847,E,1,12,1.0,0.0,M,0.0,M,,*6F
$GPGSA,A,3,01,02,03,04,05,06,07,08,09,10,11,12,1.0,1.0,1.0*30
$GPRMC,083952.135,A,4844.143,N,01751.847,E,077.8,143.3,050925,000.0,W*7D
$GPGGA,083953.135,4844.125,N,01751.866,E,1,12,1.0,0.0,M,0.0,M,,*6D
$GPGSA,A,3,01,02,03,04,05,06,07,08,09,10,11,12,1.0,1.0,1.0*30
$GPRMC,083953.135,A,4844.125,N,01751.866,E,077.8,143.3,050925,000.0,W*7F
$GPGGA,083954.135,4844.108,N,01751.886,E,1,12,1.0,0.0,M,0.0,M,,*6B
$GPGSA,A,3,01,02,03,04,05,06,07,08,09,10,11,12,1.0,1.0,1.0*30
$GPRMC,083954.135,A,4844.108,N,01751.886,E,077.8,143.3,050925,000.0,W*79
$GPGGA,083955.135,4844.091,N,01751.906,E,1,12,1.0,0.0,M,0.0,M,,*62
$GPGSA,A,3,01,02,03,04,05,06,07,08,09,10,11,12,1.0,1.0,1.0*30
$GPRMC,083955.135,A,4844.091,N,01751.906,E,077.8,143.3,050925,000.0,W*70
$GPGGA,083956.135,4844.073,N,01751.925,E,1,12,1.0,0.0,M,0.0,M,,*6C
$GPGSA,A,3,01,02,03,04,05,06,07,08,09,10,11,12,1.0,1.0,1.0*30
$GPRMC,083956.135,A,4844.073,N,01751.925,E,077.8,143.3,050925,000.0,W*7E
$GPGGA,083957.135,4844.056,N,01751.945,E,1,12,1.0,0.0,M,0.0,M,,*6C
$GPGSA,A,3,01,02,03,04,05,06,07,08,09,10,11,12,1.0,1.0,1.0*30
$GPRMC,083957.135,A,4844.056,N,01751.945,E,077.8,143.3,050925,000.0,W*7E
$GPGGA,083958.135,4844.039,N,01751.964,E,1,12,1.0,0.0,M,0.0,M,,*69
$GPGSA,A,3,01,02,03,04,05,06,07,08,09,10,11,12,1.0,1.0,1.0*30
$GPRMC,083958.135,A,4844.039,N,01751.964,E,077.8,143.3,050925,000.0,W*7B
$GPGGA,083959.135,4844.022,N,01751.984,E,1,12,1.0,0.0,M,0.0,M,,*6C
$GPGSA,A,3,01,02,03,04,05,06,07,08,09,10,11,12,1.0,1.0,1.0*30
$GPRMC,083959.135,A,4844.022,N,01751.984,E,077.8,143.3,050925,000.0,W*7E
$GPGGA,084000.135,4844.004,N,01752.003,E,1,12,1.0,0.0,M,0.0,M,,*6F
$GPGSA,A,3,01,02,03,04,05,06,07,08,09,10,11,12,1.0,1.0,1.0*30
$GPRMC,084000.135,A,4844.004,N,01752.003,E,077.8,143.3,050925,000.0,W*7D
$GPGGA,084001.135,4843.987,N,01752.023,E,1,12,1.0,0.0,M,0.0,M,,*69
$GPGSA,A,3,01,02,03,04,05,06,07,08,09,10,11,12,1.0,1.0,1.0*30
$GPRMC,084001.135,A,4843.987,N,01752.023,E,077.8,140.4,050925,000.0,W*7F
$GPGGA,084002.135,4843.970,N,01752.044,E,1,12,1.0,0.0,M,0.0,M,,*63
$GPGSA,A,3,01,02,03,04,05,06,07,08,09,10,11,12,1.0,1.0,1.0*30
$GPRMC,084002.135,A,4843.970,N,01752.044,E,077.8,140.4,050925,000.0,W*75
$GPGGA,084003.135,4843.954,N,01752.065,E,1,12,1.0,0.0,M,0.0,M,,*67
$GPGSA,A,3,01,02,03,04,05,06,07,08,09,10,11,12,1.0,1.0,1.0*30
$GPRMC,084003.135,A,4843.954,N,01752.065,E,077.8,140.4,050925,000.0,W*71
$GPGGA,084004.135,4843.937,N,01752.086,E,1,12,1.0,0.0,M,0.0,M,,*68
$GPGSA,A,3,01,02,03,04,05,06,07,08,09,10,11,12,1.0,1.0,1.0*30
$GPRMC,084004.135,A,4843.937,N,01752.086,E,077.8,140.3,050925,000.0,W*79
$GPGGA,084005.135,4843.920,N,01752.106,E,1,12,1.0,0.0,M,0.0,M,,*66
$GPGSA,A,3,01,02,03,04,05,06,07,08,09,10,11,12,1.0,1.0,1.0*30
$GPRMC,084005.135,A,4843.920,N,01752.106,E,077.8,140.3,050925,000.0,W*77
$GPGGA,084006.135,4843.904,N,01752.127,E,1,12,1.0,0.0,M,0.0,M,,*60
$GPGSA,A,3,01,02,03,04,05,06,07,08,09,10,11,12,1.0,1.0,1.0*30
$GPRMC,084006.135,A,4843.904,N,01752.127,E,077.8,140.3,050925,000.0,W*71
$GPGGA,084007.135,4843.887,N,01752.148,E,1,12,1.0,0.0,M,0.0,M,,*62
$GPGSA,A,3,01,02,03,04,05,06,07,08,09,10,11,12,1.0,1.0,1.0*30
$GPRMC,084007.135,A,4843.887,N,01752.148,E,077.8,140.3,050925,000.0,W*73
$GPGGA,084008.135,4843.871,N,01752.169,E,1,12,1.0,0.0,M,0.0,M,,*67
$GPGSA,A,3,01,02,03,04,05,06,07,08,09,10,11,12,1.0,1.0,1.0*30
$GPRMC,084008.135,A,4843.871,N,01752.169,E,077.8,140.3,050925,000.0,W*76
$GPGGA,084009.135,4843.854,N,01752.190,E,1,12,1.0,0.0,M,0.0,M,,*67
$GPGSA,A,3,01,02,03,04,05,06,07,08,09,10,11,12,1.0,1.0,1.0*30
$GPRMC,084009.135,A,4843.854,N,01752.190,E,077.8,150.9,050925,000.0,W*7D
$GPGGA,084010.135,4843.835,N,01752.206,E,1,12,1.0,0.0,M,0.0,M,,*64
$GPGSA,A,3,01,02,03,04,05,06,07,08,09,10,11,12,1.0,1.0,1.0*30
$GPRMC,084010.135,A,4843.835,N,01752.206,E,077.8,150.9,050925,000.0,W*7E
$GPGGA,084011.135,4843.816,N,01752.222,E,1,12,1.0,0.0,M,0.0,M,,*62
$GPGSA,A,3,01,02,03,04,05,06,07,08,09,10,11,12,1.0,1.0,1.0*30
$GPRMC,084011.135,A,4843.816,N,01752.222,E,077.8,150.9,050925,000.0,W*78
$GPGGA,084012.135,4843.797,N,01752.238,E,1,12,1.0,0.0,M,0.0,M,,*6C
$GPGSA,A,3,01,02,03,04,05,06,07,08,09,10,11,12,1.0,1.0,1.0*30
$GPRMC,084012.135,A,4843.797,N,01752.238,E,077.8,150.9,050925,000.0,W*76
$GPGGA,084013.135,4843.779,N,01752.253,E,1,12,1.0,0.0,M,0.0,M,,*60
$GPGSA,A,3,01,02,03,04,05,06,07,08,09,10,11,12,1.0,1.0,1.0*30
$GPRMC,084013.135,A,4843.779,N,01752.253,E,077.8,150.9,050925,000.0,W*7A
$GPGGA,084014.135,4843.760,N,01752.269,E,1,12,1.0,0.0,M,0.0,M,,*66
$GPGSA,A,3,01,02,03,04,05,06,07,08,09,10,11,12,1.0,1.0,1.0*30
$GPRMC,084014.135,A,4843.760,N,01752.269,E,077.8,150.9,050925,000.0,W*7C
$GPGGA,084015.135,4843.741,N,01752.285,E,1,12,1.0,0.0,M,0.0,M,,*66
$GPGSA,A,3,01,02,03,04,05,06,07,08,09,10,11,12,1.0,1.0,1.0*30
$GPRMC,084015.135,A,4843.741,N,01752.285,E,077.8,150.9,050925,000.0,W*7C
$GPGGA,084016.135,4843.722,N,01752.301,E,1,12,1.0,0.0,M,0.0,M,,*6D
$GPGSA,A,3,01,02,03,04,05,06,07,08,09,10,11,12,1.0,1.0,1.0*30
$GPRMC,084016.135,A,4843.722,N,01752.301,E,077.8,150.9,050925,000.0,W*77
$GPGGA,084017.135,4843.703,N,01752.317,E,1,12,1.0,0.0,M,0.0,M,,*68
$GPGSA,A,3,01,02,03,04,05,06,07,08,09,10,11,12,1.0,1.0,1.0*30
$GPRMC,084017.135,A,4843.703,N,01752.317,E,077.8,160.1,050925,000.0,W*79
$GPGGA,084018.135,4843.683,N,01752.328,E,1,12,1.0,0.0,M,0.0,M,,*62
$GPGSA,A,3,01,02,03,04,05,06,07,08,09,10,11,12,1.0,1.0,1.0*30
$GPRMC,084018.135,A,4843.683,N,01752.328,E,077.8,160.1,050925,000.0,W*73
$GPGGA,084019.135,4843.662,N,01752.339,E,1,12,1.0,0.0,M,0.0,M,,*6C
$GPGSA,A,3,01,02,03,04,05,06,07,08,09,10,11,12,1.0,1.0,1.0*30
$GPRMC,084019.135,A,4843.662,N,01752.339,E,077.8,160.1,050925,000.0,W*7D
$GPGGA,084020.135,4843.642,N,01752.350,E,1,12,1.0,0.0,M,0.0,M,,*6B
$GPGSA,A,3,01,02,03,04,05,06,07,08,09,10,11,12,1.0,1.0,1.0*30
$GPRMC,084020.135,A,4843.642,N,01752.350,E,077.8,160.1,050925,000.0,W*7A
$GPGGA,084021.135,4843.622,N,01752.362,E,1,12,1.0,0.0,M,0.0,M,,*6D
$GPGSA,A,3,01,02,03,04,05,06,07,08,09,10,11,12,1.0,1.0,1.0*30
$GPRMC,084021.135,A,4843.622,N,01752.362,E,077.8,160.1,050925,000.0,W*7C
$GPGGA,084022.135,4843.602,N,01752.373,E,1,12,1.0,0.0,M,0.0,M,,*6C
$GPGSA,A,3,01,02,03,04,05,06,07,08,09,10,11,12,1.0,1.0,1.0*30
$GPRMC,084022.135,A,4843.602,N,01752.373,E,077.8,160.1,050925,000.0,W*7D
$GPGGA,084023.135,4843.581,N,01752.384,E,1,12,1.0,0.0,M,0.0,M,,*6D
$GPGSA,A,3,01,02,03,04,05,06,07,08,09,10,11,12,1.0,1.0,1.0*30
$GPRMC,084023.135,A,4843.581,N,01752.384,E,077.8,160.1,050925,000.0,W*7C
$GPGGA,084024.135,4843.561,N,01752.395,E,1,12,1.0,0.0,M,0.0,M,,*64
$GPGSA,A,3,01,02,03,04,05,06,07,08,09,10,11,12,1.0,1.0,1.0*30
$GPRMC,084024.135,A,4843.561,N,01752.395,E,077.8,160.1,050925,000.0,W*75
$GPGGA,084025.135,4843.541,N,01752.406,E,1,12,1.0,0.0,M,0.0,M,,*6A
$GPGSA,A,3,01,02,03,04,05,06,07,08,09,10,11,12,1.0,1.0,1.0*30
$GPRMC,084025.135,A,4843.541,N,01752.406,E,077.8,160.1,050925,000.0,W*7B
$GPGGA,084026.135,4843.520,N,01752.417,E,1,12,1.0,0.0,M,0.0,M,,*6E
$GPGSA,A,3,01,02,03,04,05,06,07,08,09,10,11,12,1.0,1.0,1.0*30
$GPRMC,084026.135,A,4843.520,N,01752.417,E,077.8,170.0,050925,000.0,W*7F
$GPGGA,084027.135,4843.499,N,01752.423,E,1,12,1.0,0.0,M,0.0,M,,*6B
$GPGSA,A,3,01,02,03,04,05,06,07,08,09,10,11,12,1.0,1.0,1.0*30
$GPRMC,084027.135,A,4843.499,N,01752.423,E,077.8,170.0,050925,000.0,W*7A
$GPGGA,084028.135,4843.478,N,01752.429,E,1,12,1.0,0.0,M,0.0,M,,*61
$GPGSA,A,3,01,02,03,04,05,06,07,08,09,10,11,12,1.0,1.0,1.0*30
$GPRMC,084028.135,A,4843.478,N,01752.429,E,077.8,170.0,050925,000.0,W*70
$GPGGA,084029.135,4843.457,N,01752.434,E,1,12,1.0,0.0,M,0.0,M,,*61
$GPGSA,A,3,01,02,03,04,05,06,07,08,09,10,11,12,1.0,1.0,1.0*30
$GPRMC,084029.135,A,4843.457,N,01752.434,E,077.8,170.0,050925,000.0,W*70
$GPGGA,084030.135,4843.435,N,01752.440,E,1,12,1.0,0.0,M,0.0,M,,*6E
$GPGSA,A,3,01,02,03,04,05,06,07,08,09,10,11,12,1.0,1.0,1.0*30
$GPRMC,084030.135,A,4843.435,N,01752.440,E,077.8,170.0,050925,000.0,W*7F
$GPGGA,084031.135,4843.414,N,01752.446,E,1,12,1.0,0.0,M,0.0,M,,*6A
$GPGSA,A,3,01,02,03,04,05,06,07,08,09,10,11,12,1.0,1.0,1.0*30
$GPRMC,084031.135,A,4843.414,N,01752.446,E,077.8,170.0,050925,000.0,W*7B
$GPGGA,084032.135,4843.393,N,01752.451,E,1,12,1.0,0.0,M,0.0,M,,*67
$GPGSA,A,3,01,02,03,04,05,06,07,08,09,10,11,12,1.0,1.0,1.0*30
$GPRMC,084032.135,A,4843.393,N,01752.451,E,077.8,177.2,050925,000.0,W*73
$GPGGA,084033.135,4843.371,N,01752.453,E,1,12,1.0,0.0,M,0.0,M,,*68
$GPGSA,A,3,01,02,03,04,05,06,07,08,09,10,11,12,1.0,1.0,1.0*30
$GPRMC,084033.135,A,4843.371,N,01752.453,E,077.8,177.2,050925,000.0,W*7C
$GPGGA,084034.135,4843.350,N,01752.454,E,1,12,1.0,0.0,M,0.0,M,,*6B
$GPGSA,A,3,01,02,03,04,05,06,07,08,09,10,11,12,1.0,1.0,1.0*30
$GPRMC,084034.135,A,4843.350,N,01752.454,E,077.8,177.2,050925,000.0,W*7F
$GPGGA,084035.135,4843.328,N,01752.456,E,1,12,1.0,0.0,M,0.0,M,,*67
$GPGSA,A,3,01,02,03,04,05,06,07,08,09,10,11,12,1.0,1.0,1.0*30
$GPRMC,084035.135,A,4843.328,N,01752.456,E,077.8,177.2,050925,000.0,W*73
$GPGGA,084036.135,4843.307,N,01752.458,E,1,12,1.0,0.0,M,0.0,M,,*67
$GPGSA,A,3,01,02,03,04,05,06,07,08,09,10,11,12,1.0,1.0,1.0*30
$GPRMC,084036.135,A,4843.307,N,01752.458,E,077.8,177.2,050925,000.0,W*73
$GPGGA,084037.135,4843.285,N,01752.459,E,1,12,1.0,0.0,M,0.0,M,,*6C
$GPGSA,A,3,01,02,03,04,05,06,07,08,09,10,11,12,1.0,1.0,1.0*30
$GPRMC,084037.135,A,4843.285,N,01752.459,E,077.8,177.2,050925,000.0,W*78
$GPGGA,084038.135,4843.264,N,01752.461,E,1,12,1.0,0.0,M,0.0,M,,*67
$GPGSA,A,3,01,02,03,04,05,06,07,08,09,10,11,12,1.0,1.0,1.0*30
$GPRMC,084038.135,A,4843.264,N,01752.461,E,077.8,177.2,050925,000.0,W*73
$GPGGA,084039.135,4843.242,N,01752.462,E,1,12,1.0,0.0,M,0.0,M,,*61
$GPGSA,A,3,01,02,03,04,05,06,07,08,09,10,11,12,1.0,1.0,1.0*30
$GPRMC,084039.135,A,4843.242,N,01752.462,E,077.8,177.2,050925,000.0,W*75
$GPGGA,084040.135,4843.220,N,01752.464,E,1,12,1.0,0.0,M,0.0,M,,*6D
$GPGSA,A,3,01,02,03,04,05,06,07,08,09,10,11,12,1.0,1.0,1.0*30
$GPRMC,084040.135,A,4843.220,N,01752.464,E,077.8,177.2,050925,000.0,W*79
$GPGGA,084041.135,4843.199,N,01752.466,E,1,12,1.0,0.0,M,0.0,M,,*6F
$GPGSA,A,3,01,02,03,04,05,06,07,08,09,10,11,12,1.0,1.0,1.0*30
$GPRMC,084041.135,A,4843.199,N,01752.466,E,077.8,177.2,050925,000.0,W*7B
$GPGGA,084042.135,4843.177,N,01752.467,E,1,12,1.0,0.0,M,0.0,M,,*6D
$GPGSA,A,3,01,02,03,04,05,06,07,08,09,10,11,12,1.0,1.0,1.0*30
$GPRMC,084042.135,A,4843.177,N,01752.467,E,077.8,177.2,050925,000.0,W*79
$GPGGA,084043.135,4843.156,N,01752.469,E,1,12,1.0,0.0,M,0.0,M,,*61
$GPGSA,A,3,01,02,03,04,05,06,07,08,09,10,11,12,1.0,1.0,1.0*30
$GPRMC,084043.135,A,4843.156,N,01752.469,E,077.8,185.6,050925,000.0,W*7C
$GPGGA,084044.135,4843.134,N,01752.466,E,1,12,1.0,0.0,M,0.0,M,,*6D
$GPGSA,A,3,01,02,03,04,05,06,07,08,09,10,11,12,1.0,1.0,1.0*30
$GPRMC,084044.135,A,4843.134,N,01752.466,E,077.8,185.6,050925,000.0,W*70
$GPGGA,084045.135,4843.113,N,01752.462,E,1,12,1.0,0.0,M,0.0,M,,*6D
$GPGSA,A,3,01,02,03,04,05,06,07,08,09,10,11,12,1.0,1.0,1.0*30
$GPRMC,084045.135,A,4843.113,N,01752.462,E,077.8,185.6,050925,000.0,W*70
$GPGGA,084046.135,4843.091,N,01752.459,E,1,12,1.0,0.0,M,0.0,M,,*6D
$GPGSA,A,3,01,02,03,04,05,06,07,08,09,10,11,12,1.0,1.0,1.0*30
$GPRMC,084046.135,A,4843.091,N,01752.459,E,077.8,185.6,050925,000.0,W*70
$GPGGA,084047.135,4843.070,N,01752.456,E,1,12,1.0,0.0,M,0.0,M,,*6C
$GPGSA,A,3,01,02,03,04,05,06,07,08,09,10,11,12,1.0,1.0,1.0*30
$GPRMC,084047.135,A,4843.070,N,01752.456,E,077.8,185.6,050925,000.0,W*71
$GPGGA,084048.135,4843.048,N,01752.453,E,1,12,1.0,0.0,M,0.0,M,,*6D
$GPGSA,A,3,01,02,03,04,05,06,07,08,09,10,11,12,1.0,1.0,1.0*30
$GPRMC,084048.135,A,4843.048,N,01752.453,E,077.8,185.6,050925,000.0,W*70
$GPGGA,084049.135,4843.027,N,01752.450,E,1,12,1.0,0.0,M,0.0,M,,*66
$GPGSA,A,3,01,02,03,04,05,06,07,08,09,10,11,12,1.0,1.0,1.0*30
$GPRMC,084049.135,A,4843.027,N,01752.450,E,077.8,185.6,050925,000.0,W*7B
$GPGGA,084050.135,4843.005,N,01752.446,E,1,12,1.0,0.0,M,0.0,M,,*69
$GPGSA,A,3,01,02,03,04,05,06,07,08,09,10,11,12,1.0,1.0,1.0*30
$GPRMC,084050.135,A,4843.005,N,01752.446,E,077.8,185.6,050925,000.0,W*74
$GPGGA,084051.135,4842.984,N,01752.443,E,1,12,1.0,0.0,M,0.0,M,,*6C
$GPGSA,A,3,01,02,03,04,05,06,07,08,09,10,11,12,1.0,1.0,1.0*30
$GPRMC,084051.135,A,4842.984,N,01752.443,E,077.8,185.6,050925,000.0,W*71
$GPGGA,084052.135,4842.962,N,01752.440,E,1,12,1.0,0.0,M,0.0,M,,*64
$GPGSA,A,3,01,02,03,04,05,06,07,08,09,10,11,12,1.0,1.0,1.0*30
$GPRMC,084052.135,A,4842.962,N,01752.440,E,077.8,185.6,050925,000.0,W*79
