$GPGGA,150236.00,4808.57280,N,1707.84060,E,2,7,0.189,0.000,M,,*3F
$GPRMC,150236.00,A,4808.57280,N,1707.84060,E,30.4,0.0,090320,0,W*5F
$GPGGA,150237.00,4808.58180,N,1707.84500,E,2,7,0.189,0.000,M,,*31
$GPRMC,150237.00,A,4808.58180,N,1707.84500,E,33.1,0.0,090320,0,W*57
$GPGGA,150238.00,4808.59080,N,1707.84980,E,2,7,0.189,0.000,M,,*3A
$GPRMC,150238.00,A,4808.59080,N,1707.84980,E,34.9,0.0,090320,0,W*53
$GPGGA,150239.00,4808.59980,N,1707.85460,E,2,7,0.189,0.000,M,,*30
$GPRMC,150239.00,A,4808.59980,N,1707.85460,E,33.3,0.0,090320,0,W*54
$GPGGA,150240.00,4808.60880,N,1707.85940,E,2,7,0.189,0.000,M,,*3A
$GPRMC,150240.00,A,4808.60880,N,1707.85940,E,34.2,0.0,090320,0,W*58
$GPGGA,150241.00,4808.61780,N,1707.86480,E,2,7,0.189,0.000,M,,*37
$GPRMC,150241.00,A,4808.61780,N,1707.86480,E,35.0,0.0,090320,0,W*56
$GPGGA,150242.00,4808.62740,N,1707.86960,E,2,7,0.189,0.000,M,,*38
$GPRMC,150242.00,A,4808.62740,N,1707.86960,E,35.2,0.0,090320,0,W*5B
$GPGGA,150243.00,4808.63640,N,1707.87500,E,2,7,0.189,0.000,M,,*32
$GPRMC,150243.00,A,4808.63640,N,1707.87500,E,35.6,0.0,090320,0,W*55
$GPGGA,150244.00,4808.64600,N,1707.88040,E,2,7,0.189,0.000,M,,*38
$GPRMC,150244.00,A,4808.64600,N,1707.88040,E,35.7,0.0,090320,0,W*5E
$GPGGA,150245.00,4808.65560,N,1707.88580,E,2,7,0.189,0.000,M,,*34
$GPRMC,150245.00,A,4808.65560,N,1707.88580,E,35.1,0.0,090320,0,W*54
$GPGGA,150246.00,4808.66460,N,1707.89160,E,2,7,0.189,0.000,M,,*3E
$GPRMC,150246.00,A,4808.66460,N,1707.89160,E,34.6,0.0,090320,0,W*58
$GPGGA,150247.00,4808.67300,N,1707.89700,E,2,7,0.189,0.000,M,,*3F
$GPRMC,150247.00,A,4808.67300,N,1707.89700,E,32.9,0.0,090320,0,W*50
$GPGGA,150248.00,4808.68140,N,1707.90140,E,2,7,0.189,0.000,M,,*33
$GPRMC,150248.00,A,4808.68140,N,1707.90140,E,33.0,0.0,090320,0,W*54
$GPGGA,150249.00,4808.68980,N,1707.90780,E,2,7,0.189,0.000,M,,*3C
$GPRMC,150249.00,A,4808.68980,N,1707.90780,E,31.2,0.0,090320,0,W*5B
$GPGGA,150250.00,4808.69700,N,1707.91220,E,2,7,0.189,0.000,M,,*3D
$GPRMC,150250.00,A,4808.69700,N,1707.91220,E,27.6,0.0,090320,0,W*59
$GPGGA,150251.00,4808.70360,N,1707.91640,E,2,7,0.189,0.000,M,,*34
$GPRMC,150251.00,A,4808.70360,N,1707.91640,E,23.4,0.0,090320,0,W*56
$GPGGA,150252.00,4808.70840,N,1707.91980,E,2,7,0.152,0.000,M,,*3B
$GPRMC,150252.00,A,4808.70840,N,1707.91980,E,17.3,0.0,090320,0,W*5F
$GPGGA,150253.00,4808.71260,N,1707.92180,E,2,7,0.152,0.000,M,,*38
$GPRMC,150253.00,A,4808.71260,N,1707.92180,E,16.4,0.0,090320,0,W*5A
$GPGGA,150254.00,4808.71620,N,1707.92460,E,2,7,0.114,0.000,M,,*36
$GPRMC,150254.00,A,4808.71620,N,1707.92460,E,11.7,0.0,090320,0,W*52
$GPGGA,150255.00,4808.71860,N,1707.92600,E,2,7,0.095,0.000,M,,*31
$GPRMC,150255.00,A,4808.71860,N,1707.92600,E,10.1,0.0,090320,0,W*5A
$GPGGA,150256.00,4808.72100,N,1707.92780,E,2,7,0.057,0.000,M,,*39
$GPRMC,150256.00,A,4808.72100,N,1707.92780,E,9.0,0.0,090320,0,W*65
$GPGGA,150257.00,4808.72280,N,1707.92960,E,2,7,0.057,0.000,M,,*33
$GPRMC,150257.00,A,4808.72280,N,1707.92960,E,10.0,0.0,090320,0,W*57
$GPGGA,150258.00,4808.72400,N,1707.93260,E,2,7,0.057,0.000,M,,*38
$GPRMC,150258.00,A,4808.72400,N,1707.93260,E,11.2,0.0,090320,0,W*5F
$GPGGA,150259.00,4808.72580,N,1707.93740,E,2,7,0.057,0.000,M,,*37
$GPRMC,150259.00,A,4808.72580,N,1707.93740,E,15.9,0.0,090320,0,W*5F
$GPGGA,150300.00,4808.72820,N,1707.94400,E,2,7,0.057,0.000,M,,*3D
$GPRMC,150300.00,A,4808.72820,N,1707.94400,E,18.9,0.0,090320,0,W*58
$GPGGA,150301.00,4808.72880,N,1707.95180,E,2,7,0.057,0.000,M,,*3A
$GPRMC,150301.00,A,4808.72880,N,1707.95180,E,18.3,0.0,090320,0,W*55
$GPGGA,150302.00,4808.72940,N,1707.95960,E,2,7,0.057,0.000,M,,*32
$GPRMC,150302.00,A,4808.72940,N,1707.95960,E,21.4,0.0,090320,0,W*50
$GPGGA,150303.00,4808.72820,N,1707.96960,E,2,7,0.076,0.000,M,,*34
$GPRMC,150303.00,A,4808.72820,N,1707.96960,E,24.5,0.0,090320,0,W*51
$GPGGA,150304.00,4808.72760,N,1707.98000,E,2,7,0.076,0.000,M,,*39
$GPRMC,150304.00,A,4808.72760,N,1707.98000,E,26.1,0.0,090320,0,W*5A
$GPGGA,150305.00,4808.72700,N,1707.99140,E,2,7,0.076,0.000,M,,*3A
$GPRMC,150305.00,A,4808.72700,N,1707.99140,E,26.6,0.0,090320,0,W*5E
$GPGGA,150306.00,4808.72580,N,1708.00280,E,2,7,0.076,0.000,M,,*33
$GPRMC,150306.00,A,4808.72580,N,1708.00280,E,26.1,0.0,090320,0,W*50
$GPGGA,150307.00,4808.72520,N,1708.01360,E,2,7,0.076,0.000,M,,*36
$GPRMC,150307.00,A,4808.72520,N,1708.01360,E,28.7,0.0,090320,0,W*5D
$GPGGA,150308.00,4808.72460,N,1708.02600,E,2,7,0.057,0.000,M,,*3F
$GPRMC,150308.00,A,4808.72460,N,1708.02600,E,29.9,0.0,090320,0,W*58
$GPGGA,150309.00,4808.72520,N,1708.03820,E,2,7,0.057,0.000,M,,*36
$GPRMC,150309.00,A,4808.72520,N,1708.03820,E,29.1,0.0,090320,0,W*59
$GPGGA,150310.00,4808.72640,N,1708.05020,E,2,7,0.057,0.000,M,,*35
$GPRMC,150310.00,A,4808.72640,N,1708.05020,E,28.8,0.0,090320,0,W*52
$GPGGA,150311.00,4808.72760,N,1708.06220,E,2,7,0.057,0.000,M,,*36
$GPRMC,150311.00,A,4808.72760,N,1708.06220,E,30.0,0.0,090320,0,W*50
$GPGGA,150312.00,4808.72940,N,1708.07420,E,2,7,0.057,0.000,M,,*3E
$GPRMC,150312.00,A,4808.72940,N,1708.07420,E,30.2,0.0,090320,0,W*5A
$GPGGA,150313.00,4808.73180,N,1708.08560,E,2,7,0.057,0.000,M,,*30
$GPRMC,150313.00,A,4808.73180,N,1708.08560,E,29.5,0.0,090320,0,W*5B
$GPGGA,150314.00,4808.73480,N,1708.09700,E,2,7,0.057,0.000,M,,*37
$GPRMC,150314.00,A,4808.73480,N,1708.09700,E,29.1,0.0,090320,0,W*58
$GPGGA,150315.00,4808.73720,N,1708.10840,E,2,7,0.057,0.000,M,,*3C
$GPRMC,150315.00,A,4808.73720,N,1708.10840,E,28.2,0.0,090320,0,W*51
$GPGGA,150316.00,4808.73960,N,1708.11920,E,2,7,0.057,0.000,M,,*33
$GPRMC,150316.00,A,4808.73960,N,1708.11920,E,27.4,0.0,090320,0,W*57
$GPGGA,150317.00,4808.74200,N,1708.12940,E,2,7,0.076,0.000,M,,*3E
$GPRMC,150317.00,A,4808.74200,N,1708.12940,E,25.7,0.0,090320,0,W*58
$GPGGA,150318.00,4808.74440,N,1708.13960,E,2,7,0.076,0.000,M,,*30
$GPRMC,150318.00,A,4808.74440,N,1708.13960,E,26.5,0.0,090320,0,W*57
$GPGGA,150319.00,4808.74740,N,1708.15020,E,2,7,0.076,0.000,M,,*39
$GPRMC,150319.00,A,4808.74740,N,1708.15020,E,26.0,0.0,090320,0,W*5B
$GPGGA,150320.00,4808.74980,N,1708.16000,E,2,7,0.076,0.000,M,,*30
$GPRMC,150320.00,A,4808.74980,N,1708.16000,E,25.0,0.0,090320,0,W*51
$GPGGA,150321.00,4808.75280,N,1708.16960,E,2,7,0.076,0.000,M,,*34
$GPRMC,150321.00,A,4808.75280,N,1708.16960,E,23.8,0.0,090320,0,W*5B
$GPGGA,150322.00,4808.75460,N,1708.17860,E,2,7,0.076,0.000,M,,*3F
$GPRMC,150322.00,A,4808.75460,N,1708.17860,E,23.2,0.0,090320,0,W*5A
$GPGGA,150323.00,4808.75700,N,1708.18760,E,2,7,0.076,0.000,M,,*3B
$GPRMC,150323.00,A,4808.75700,N,1708.18760,E,23.0,0.0,090320,0,W*5C
$GPGGA,150324.00,4808.75880,N,1708.19600,E,2,7,0.076,0.000,M,,*3D
$GPRMC,150324.00,A,4808.75880,N,1708.19600,E,21.4,0.0,090320,0,W*5C
$GPGGA,150325.00,4808.76060,N,1708.20440,E,2,7,0.076,0.000,M,,*35
$GPRMC,150325.00,A,4808.76060,N,1708.20440,E,20.6,0.0,090320,0,W*57
$GPGGA,150326.00,4808.76300,N,1708.21260,E,2,7,0.076,0.000,M,,*36
$GPRMC,150326.00,A,4808.76300,N,1708.21260,E,19.9,0.0,090320,0,W*51
$GPGGA,150327.00,4808.76480,N,1708.21880,E,2,7,0.057,0.000,M,,*3F
$GPRMC,150327.00,A,4808.76480,N,1708.21880,E,18.9,0.0,090320,0,W*5A
$GPGGA,150328.00,4808.76660,N,1708.22600,E,2,7,0.057,0.000,M,,*39
$GPRMC,150328.00,A,4808.76660,N,1708.22600,E,19.0,0.0,090320,0,W*54
$GPGGA,150329.00,4808.76840,N,1708.23260,E,2,7,0.057,0.000,M,,*37
$GPRMC,150329.00,A,4808.76840,N,1708.23260,E,17.9,0.0,090320,0,W*5D
$GPGGA,150330.00,4808.77020,N,1708.23920,E,2,7,0.057,0.000,M,,*3F
$GPRMC,150330.00,A,4808.77020,N,1708.23920,E,15.8,0.0,090320,0,W*56
$GPGGA,150331.00,4808.77140,N,1708.24560,E,2,7,0.057,0.000,M,,*36
$GPRMC,150331.00,A,4808.77140,N,1708.24560,E,15.6,0.0,090320,0,W*51
$GPGGA,150332.00,4808.77320,N,1708.25060,E,2,7,0.057,0.000,M,,*35
$GPRMC,150332.00,A,4808.77320,N,1708.25060,E,11.5,0.0,090320,0,W*55
$GPGGA,150333.00,4808.77380,N,1708.25480,E,2,7,0.057,0.000,M,,*34
$GPRMC,150333.00,A,4808.77380,N,1708.25480,E,9.7,0.0,090320,0,W*6F
$GPGGA,150334.00,4808.77440,N,1708.25840,E,2,7,0.057,0.000,M,,*38
$GPRMC,150334.00,A,4808.77440,N,1708.25840,E,7.2,0.0,090320,0,W*68
$GPGGA,150335.00,4808.77500,N,1708.26140,E,2,7,0.057,0.000,M,,*36
$GPRMC,150335.00,A,4808.77500,N,1708.26140,E,5.2,0.0,090320,0,W*64
$GPGGA,150336.00,4808.77560,N,1708.26300,E,2,7,0.057,0.000,M,,*35
$GPRMC,150336.00,A,4808.77560,N,1708.26300,E,2.5,0.0,090320,0,W*67
$GPGGA,150337.00,4808.77560,N,1708.26380,E,2,7,0.057,0.000,M,,*3C
$GPRMC,150337.00,A,4808.77560,N,1708.26380,E,2.1,0.0,090320,0,W*6A
$GPGGA,150338.00,4808.77560,N,1708.26440,E,2,7,0.076,0.000,M,,*3B
$GPRMC,150338.00,A,4808.77560,N,1708.26440,E,1.1,0.0,090320,0,W*6D
$GPGGA,150339.00,4808.77560,N,1708.26500,E,2,7,0.076,0.000,M,,*3F
$GPRMC,150339.00,A,4808.77560,N,1708.26500,E,1.1,0.0,090320,0,W*69
$GPGGA,150340.00,4808.77560,N,1708.26560,E,2,7,0.076,0.000,M,,*37
$GPRMC,150340.00,A,4808.77560,N,1708.26560,E,0.7,0.0,090320,0,W*66
$GPGGA,150341.00,4808.77560,N,1708.26500,E,2,7,0.095,0.000,M,,*3D
$GPRMC,150341.00,A,4808.77560,N,1708.26500,E,0.6,0.0,090320,0,W*60
$GPGGA,150342.00,4808.77380,N,1708.26440,E,2,7,0.095,0.000,M,,*33
$GPRMC,150342.00,A,4808.77380,N,1708.26440,E,3.1,0.0,090320,0,W*6A
$GPGGA,150343.00,4808.77320,N,1708.26440,E,2,7,0.095,0.000,M,,*38
$GPRMC,150343.00,A,4808.77320,N,1708.26440,E,2.5,0.0,090320,0,W*64
$GPGGA,150344.00,4808.77320,N,1708.26440,E,2,7,0.095,0.000,M,,*3F
$GPRMC,150344.00,A,4808.77320,N,1708.26440,E,1.5,0.0,090320,0,W*60
$GPGGA,150345.00,4808.77320,N,1708.26440,E,2,7,0.114,0.000,M,,*36
$GPRMC,150345.00,A,4808.77320,N,1708.26440,E,0.4,0.0,090320,0,W*61
$GPGGA,150346.00,4808.77320,N,1708.26440,E,2,7,0.114,0.000,M,,*35
$GPRMC,150346.00,A,4808.77320,N,1708.26440,E,0.3,0.0,090320,0,W*65
$GPGGA,150347.00,4808.77380,N,1708.26500,E,2,7,0.114,0.000,M,,*3B
$GPRMC,150347.00,A,4808.77380,N,1708.26500,E,1.3,0.0,090320,0,W*6A
$GPGGA,150348.00,4808.77380,N,1708.26620,E,2,7,0.114,0.000,M,,*35
$GPRMC,150348.00,A,4808.77380,N,1708.26620,E,4.5,0.0,090320,0,W*67
$GPGGA,150349.00,4808.77440,N,1708.26840,E,2,7,0.095,0.000,M,,*3F
$GPRMC,150349.00,A,4808.77440,N,1708.26840,E,6.0,0.0,090320,0,W*62
$GPGGA,150350.00,4808.77500,N,1708.27100,E,2,7,0.095,0.000,M,,*3E
$GPRMC,150350.00,A,4808.77500,N,1708.27100,E,7.2,0.0,090320,0,W*60
$GPGGA,150351.00,4808.77560,N,1708.27440,E,2,7,0.095,0.000,M,,*38
$GPRMC,150351.00,A,4808.77560,N,1708.27440,E,8.2,0.0,090320,0,W*69
$GPGGA,150352.00,4808.77620,N,1708.27760,E,2,7,0.095,0.000,M,,*3D
$GPRMC,150352.00,A,4808.77620,N,1708.27760,E,9.7,0.0,090320,0,W*68
$GPGGA,150353.00,4808.77740,N,1708.28180,E,2,7,0.076,0.000,M,,*31
$GPRMC,150353.00,A,4808.77740,N,1708.28180,E,15.5,0.0,090320,0,W*56
$GPGGA,150354.00,4808.77920,N,1708.28840,E,2,7,0.076,0.000,M,,*3B
$GPRMC,150354.00,A,4808.77920,N,1708.28840,E,17.5,0.0,090320,0,W*5E
$GPGGA,150355.00,4808.78100,N,1708.29560,E,2,7,0.076,0.000,M,,*31
$GPRMC,150355.00,A,4808.78100,N,1708.29560,E,15.4,0.0,090320,0,W*57
$GPGGA,150356.00,4808.78280,N,1708.30260,E,2,7,0.076,0.000,M,,*36
$GPRMC,150356.00,A,4808.78280,N,1708.30260,E,18.0,0.0,090320,0,W*59
$GPGGA,150357.00,4808.78460,N,1708.30940,E,2,7,0.057,0.000,M,,*35
$GPRMC,150357.00,A,4808.78460,N,1708.30940,E,20.7,0.0,090320,0,W*55
$GPGGA,150358.00,4808.78700,N,1708.31880,E,2,7,0.057,0.000,M,,*33
$GPRMC,150358.00,A,4808.78700,N,1708.31880,E,22.3,0.0,090320,0,W*55
$GPGGA,150359.00,4808.78940,N,1708.32740,E,2,7,0.057,0.000,M,,*38
$GPRMC,150359.00,A,4808.78940,N,1708.32740,E,23.9,0.0,090320,0,W*55
$GPGGA,150400.00,4808.79180,N,1708.33640,E,2,7,0.057,0.000,M,,*36
$GPRMC,150400.00,A,4808.79180,N,1708.33640,E,23.2,0.0,090320,0,W*50
$GPGGA,150401.00,4808.79420,N,1708.34540,E,2,7,0.057,0.000,M,,*3C
$GPRMC,150401.00,A,4808.79420,N,1708.34540,E,23.2,0.0,090320,0,W*5A
$GPGGA,150402.00,4808.79660,N,1708.35500,E,2,7,0.057,0.000,M,,*3C
$GPRMC,150402.00,A,4808.79660,N,1708.35500,E,24.1,0.0,090320,0,W*5E
$GPGGA,150403.00,4808.79960,N,1708.36440,E,2,7,0.057,0.000,M,,*34
$GPRMC,150403.00,A,4808.79960,N,1708.36440,E,24.4,0.0,090320,0,W*53
$GPGGA,150404.00,4808.80200,N,1708.37360,E,2,7,0.057,0.000,M,,*3C
$GPRMC,150404.00,A,4808.80200,N,1708.37360,E,23.0,0.0,090320,0,W*58
$GPGGA,150405.00,4808.80440,N,1708.38260,E,2,7,0.057,0.000,M,,*31
$GPRMC,150405.00,A,4808.80440,N,1708.38260,E,24.3,0.0,090320,0,W*51
$GPGGA,150406.00,4808.80680,N,1708.39260,E,2,7,0.057,0.000,M,,*3D
$GPRMC,150406.00,A,4808.80680,N,1708.39260,E,23.6,0.0,090320,0,W*5F
$GPGGA,150407.00,4808.80860,N,1708.40180,E,2,7,0.057,0.000,M,,*3F
$GPRMC,150407.00,A,4808.80860,N,1708.40180,E,24.0,0.0,090320,0,W*5C
$GPGGA,150408.00,4808.81040,N,1708.41140,E,2,7,0.057,0.000,M,,*36
$GPRMC,150408.00,A,4808.81040,N,1708.41140,E,22.4,0.0,090320,0,W*57
$GPGGA,150409.00,4808.81220,N,1708.42080,E,2,7,0.057,0.000,M,,*3D
$GPRMC,150409.00,A,4808.81220,N,1708.42080,E,23.1,0.0,090320,0,W*58
$GPGGA,150410.00,4808.81400,N,1708.43000,E,2,7,0.057,0.000,M,,*38
$GPRMC,150410.00,A,4808.81400,N,1708.43000,E,22.5,0.0,090320,0,W*58
$GPGGA,150411.00,4808.81580,N,1708.43900,E,2,7,0.057,0.000,M,,*39
$GPRMC,150411.00,A,4808.81580,N,1708.43900,E,21.5,0.0,090320,0,W*5A
$GPGGA,150412.00,4808.81760,N,1708.44680,E,2,7,0.057,0.000,M,,*36
$GPRMC,150412.00,A,4808.81760,N,1708.44680,E,21.5,0.0,090320,0,W*55
$GPGGA,150413.00,4808.81880,N,1708.45520,E,2,7,0.057,0.000,M,,*3E
$GPRMC,150413.00,A,4808.81880,N,1708.45520,E,22.3,0.0,090320,0,W*58
$GPGGA,150414.00,4808.82060,N,1708.46420,E,2,7,0.057,0.000,M,,*3E
$GPRMC,150414.00,A,4808.82060,N,1708.46420,E,20.7,0.0,090320,0,W*5E
$GPGGA,150415.00,4808.82300,N,1708.47260,E,2,7,0.057,0.000,M,,*39
$GPRMC,150415.00,A,4808.82300,N,1708.47260,E,21.6,0.0,090320,0,W*59
$GPGGA,150416.00,4808.82480,N,1708.48200,E,2,7,0.057,0.000,M,,*3C
$GPRMC,150416.00,A,4808.82480,N,1708.48200,E,22.4,0.0,090320,0,W*5D
$GPGGA,150417.00,4808.82720,N,1708.49000,E,2,7,0.057,0.000,M,,*37
$GPRMC,150417.00,A,4808.82720,N,1708.49000,E,23.7,0.0,090320,0,W*54
$GPGGA,150418.00,4808.82900,N,1708.49940,E,2,7,0.057,0.000,M,,*39
$GPRMC,150418.00,A,4808.82900,N,1708.49940,E,22.8,0.0,090320,0,W*54
$GPGGA,150419.00,4808.83140,N,1708.50740,E,2,7,0.057,0.000,M,,*33
$GPRMC,150419.00,A,4808.83140,N,1708.50740,E,23.2,0.0,090320,0,W*55
$GPGGA,150420.00,4808.83380,N,1708.51640,E,2,7,0.057,0.000,M,,*37
$GPRMC,150420.00,A,4808.83380,N,1708.51640,E,24.1,0.0,090320,0,W*55
$GPGGA,150421.00,4808.83620,N,1708.52600,E,2,7,0.057,0.000,M,,*3E
$GPRMC,150421.00,A,4808.83620,N,1708.52600,E,24.4,0.0,090320,0,W*59
$GPGGA,150422.00,4808.83860,N,1708.53560,E,2,7,0.057,0.000,M,,*33
$GPRMC,150422.00,A,4808.83860,N,1708.53560,E,24.3,0.0,090320,0,W*53
$GPGGA,150423.00,4808.84100,N,1708.54520,E,2,7,0.057,0.000,M,,*39
$GPRMC,150423.00,A,4808.84100,N,1708.54520,E,24.6,0.0,090320,0,W*5C
$GPGGA,150424.00,4808.84340,N,1708.55520,E,2,7,0.057,0.000,M,,*39
$GPRMC,150424.00,A,4808.84340,N,1708.55520,E,23.6,0.0,090320,0,W*5B
$GPGGA,150425.00,4808.84640,N,1708.56380,E,2,7,0.057,0.000,M,,*32
$GPRMC,150425.00,A,4808.84640,N,1708.56380,E,26.2,0.0,090320,0,W*51
$GPGGA,150426.00,4808.85000,N,1708.57400,E,2,7,0.057,0.000,M,,*3C
$GPRMC,150426.00,A,4808.85000,N,1708.57400,E,26.9,0.0,090320,0,W*54
$GPGGA,150427.00,4808.85300,N,1708.58420,E,2,7,0.057,0.000,M,,*33
$GPRMC,150427.00,A,4808.85300,N,1708.58420,E,25.8,0.0,090320,0,W*59
$GPGGA,150428.00,4808.85540,N,1708.59480,E,2,7,0.057,0.000,M,,*35
$GPRMC,150428.00,A,4808.85540,N,1708.59480,E,26.3,0.0,090320,0,W*57
$GPGGA,150429.00,4808.85840,N,1708.60520,E,2,7,0.057,0.000,M,,*38
$GPRMC,150429.00,A,4808.85840,N,1708.60520,E,27.1,0.0,090320,0,W*59
$GPGGA,150430.00,4808.86080,N,1708.61540,E,2,7,0.057,0.000,M,,*30
$GPRMC,150430.00,A,4808.86080,N,1708.61540,E,26.5,0.0,090320,0,W*54
$GPGGA,150431.00,4808.86320,N,1708.62560,E,2,7,0.057,0.000,M,,*39
$GPRMC,150431.00,A,4808.86320,N,1708.62560,E,25.7,0.0,090320,0,W*5C
$GPGGA,150432.00,4808.86560,N,1708.63580,E,2,7,0.057,0.000,M,,*37
$GPRMC,150432.00,A,4808.86560,N,1708.63580,E,26.7,0.0,090320,0,W*51
$GPGGA,150433.00,4808.86800,N,1708.64660,E,2,7,0.057,0.000,M,,*37
$GPRMC,150433.00,A,4808.86800,N,1708.64660,E,27.5,0.0,090320,0,W*52
$GPGGA,150434.00,4808.87100,N,1708.65740,E,2,7,0.057,0.000,M,,*3A
$GPRMC,150434.00,A,4808.87100,N,1708.65740,E,26.2,0.0,090320,0,W*59
$GPGGA,150435.00,4808.87340,N,1708.66800,E,2,7,0.057,0.000,M,,*35
$GPRMC,150435.00,A,4808.87340,N,1708.66800,E,28.9,0.0,090320,0,W*53
$GPGGA,150436.00,4808.87640,N,1708.67940,E,2,7,0.057,0.000,M,,*37
$GPRMC,150436.00,A,4808.87640,N,1708.67940,E,31.3,0.0,090320,0,W*53
$GPGGA,150437.00,4808.87940,N,1708.69160,E,2,7,0.057,0.000,M,,*3D
$GPRMC,150437.00,A,4808.87940,N,1708.69160,E,33.4,0.0,090320,0,W*5C
$GPGGA,150438.00,4808.88240,N,1708.70420,E,2,7,0.057,0.000,M,,*3F
$GPRMC,150438.00,A,4808.88240,N,1708.70420,E,33.0,0.0,090320,0,W*5A
$GPGGA,150439.00,4808.88540,N,1708.71680,E,2,7,0.057,0.000,M,,*30
$GPRMC,150439.00,A,4808.88540,N,1708.71680,E,31.9,0.0,090320,0,W*5E
$GPGGA,150440.00,4808.88840,N,1708.72880,E,2,7,0.057,0.000,M,,*3E
$GPRMC,150440.00,A,4808.88840,N,1708.72880,E,32.3,0.0,090320,0,W*59
$GPGGA,150441.00,4808.89140,N,1708.74180,E,2,7,0.057,0.000,M,,*38
$GPRMC,150441.00,A,4808.89140,N,1708.74180,E,30.7,0.0,090320,0,W*59
$GPGGA,150442.00,4808.89380,N,1708.75320,E,2,7,0.057,0.000,M,,*3C
$GPRMC,150442.00,A,4808.89380,N,1708.75320,E,31.1,0.0,090320,0,W*5A
$GPGGA,150443.00,4808.89620,N,1708.76540,E,2,7,0.076,0.000,M,,*32
$GPRMC,150443.00,A,4808.89620,N,1708.76540,E,30.3,0.0,090320,0,W*54
$GPGGA,150444.00,4808.89860,N,1708.77740,E,2,7,0.076,0.000,M,,*3C
$GPRMC,150444.00,A,4808.89860,N,1708.77740,E,30.5,0.0,090320,0,W*5C
$GPGGA,150445.00,4808.89980,N,1708.78940,E,2,7,0.076,0.000,M,,*33
$GPRMC,150445.00,A,4808.89980,N,1708.78940,E,30.6,0.0,090320,0,W*50
$GPGGA,150446.00,4808.90160,N,1708.80140,E,2,7,0.076,0.000,M,,*31
$GPRMC,150446.00,A,4808.90160,N,1708.80140,E,27.4,0.0,090320,0,W*56
$GPGGA,150447.00,4808.90340,N,1708.81220,E,2,7,0.076,0.000,M,,*34
$GPRMC,150447.00,A,4808.90340,N,1708.81220,E,24.7,0.0,090320,0,W*53
$GPGGA,150448.00,4808.90460,N,1708.82120,E,2,7,0.076,0.000,M,,*3E
$GPRMC,150448.00,A,4808.90460,N,1708.82120,E,22.9,0.0,090320,0,W*51
$GPGGA,150449.00,4808.90640,N,1708.83180,E,2,7,0.076,0.000,M,,*34
$GPRMC,150449.00,A,4808.90640,N,1708.83180,E,23.8,0.0,090320,0,W*5B
$GPGGA,150450.00,4808.90820,N,1708.84100,E,2,7,0.076,0.000,M,,*3B
$GPRMC,150450.00,A,4808.90820,N,1708.84100,E,22.3,0.0,090320,0,W*5E
$GPGGA,150451.00,4808.90940,N,1708.85000,E,2,7,0.076,0.000,M,,*3D
$GPRMC,150451.00,A,4808.90940,N,1708.85000,E,23.1,0.0,090320,0,W*5B
$GPGGA,150452.00,4808.91060,N,1708.86000,E,2,7,0.076,0.000,M,,*37
$GPRMC,150452.00,A,4808.91060,N,1708.86000,E,21.2,0.0,090320,0,W*50
$GPGGA,150453.00,4808.91180,N,1708.86800,E,2,7,0.076,0.000,M,,*31
$GPRMC,150453.00,A,4808.91180,N,1708.86800,E,20.9,0.0,090320,0,W*5C
$GPGGA,150454.00,4808.91300,N,1708.87620,E,2,7,0.076,0.000,M,,*31
$GPRMC,150454.00,A,4808.91300,N,1708.87620,E,19.1,0.0,090320,0,W*5E
$GPGGA,150455.00,4808.91420,N,1708.88300,E,2,7,0.076,0.000,M,,*3D
$GPRMC,150455.00,A,4808.91420,N,1708.88300,E,15.8,0.0,090320,0,W*57
$GPGGA,150456.00,4808.91480,N,1708.88900,E,2,7,0.076,0.000,M,,*3E
$GPRMC,150456.00,A,4808.91480,N,1708.88900,E,13.6,0.0,090320,0,W*5C
$GPGGA,150457.00,4808.91540,N,1708.89440,E,2,7,0.076,0.000,M,,*3A
$GPRMC,150457.00,A,4808.91540,N,1708.89440,E,11.0,0.0,090320,0,W*5C
$GPGGA,150458.00,4808.91540,N,1708.89800,E,2,7,0.076,0.000,M,,*3D
$GPRMC,150458.00,A,4808.91540,N,1708.89800,E,10.0,0.0,090320,0,W*5A
$GPGGA,150459.00,4808.91600,N,1708.90220,E,2,7,0.076,0.000,M,,*3B
$GPRMC,150459.00,A,4808.91600,N,1708.90220,E,9.4,0.0,090320,0,W*60
$GPGGA,150500.00,4808.91660,N,1708.90520,E,2,7,0.076,0.000,M,,*37
$GPRMC,150500.00,A,4808.91660,N,1708.90520,E,9.3,0.0,090320,0,W*6B
$GPGGA,150501.00,4808.91720,N,1708.90880,E,2,7,0.076,0.000,M,,*34
$GPRMC,150501.00,A,4808.91720,N,1708.90880,E,10.4,0.0,090320,0,W*57
$GPGGA,150502.00,4808.91840,N,1708.91360,E,2,7,0.076,0.000,M,,*3A
$GPRMC,150502.00,A,4808.91840,N,1708.91360,E,15.3,0.0,090320,0,W*5B
$GPGGA,150503.00,4808.91960,N,1708.92120,E,2,7,0.076,0.000,M,,*3D
$GPRMC,150503.00,A,4808.91960,N,1708.92120,E,18.4,0.0,090320,0,W*56
$GPGGA,150504.00,4808.92020,N,1708.92860,E,2,7,0.057,0.000,M,,*3A
$GPRMC,150504.00,A,4808.92020,N,1708.92860,E,16.6,0.0,090320,0,W*5E
$GPGGA,150505.00,4808.92080,N,1708.93640,E,2,7,0.057,0.000,M,,*3C
$GPRMC,150505.00,A,4808.92080,N,1708.93640,E,19.3,0.0,090320,0,W*52
$GPGGA,150506.00,4808.92200,N,1708.94460,E,2,7,0.076,0.000,M,,*31
$GPRMC,150506.00,A,4808.92200,N,1708.94460,E,20.7,0.0,090320,0,W*52
$GPGGA,150507.00,4808.92320,N,1708.95320,E,2,7,0.076,0.000,M,,*31
$GPRMC,150507.00,A,4808.92320,N,1708.95320,E,22.9,0.0,090320,0,W*5E
$GPGGA,150508.00,4808.92440,N,1708.96340,E,2,7,0.076,0.000,M,,*3A
$GPRMC,150508.00,A,4808.92440,N,1708.96340,E,22.3,0.0,090320,0,W*5F
$GPGGA,150509.00,4808.92500,N,1708.97300,E,2,7,0.076,0.000,M,,*3B
$GPRMC,150509.00,A,4808.92500,N,1708.97300,E,22.3,0.0,090320,0,W*5E
$GPGGA,150510.00,4808.92620,N,1708.98200,E,2,7,0.076,0.000,M,,*3C
$GPRMC,150510.00,A,4808.92620,N,1708.98200,E,23.0,0.0,090320,0,W*5B
$GPGGA,150511.00,4808.92740,N,1708.99160,E,2,7,0.076,0.000,M,,*3E
$GPRMC,150511.00,A,4808.92740,N,1708.99160,E,22.6,0.0,090320,0,W*5E
$GPGGA,150512.00,4808.92860,N,1709.00120,E,2,7,0.076,0.000,M,,*35
$GPRMC,150512.00,A,4808.92860,N,1709.00120,E,23.0,0.0,090320,0,W*52
$GPGGA,150513.00,4808.93040,N,1709.01080,E,2,7,0.076,0.000,M,,*35
$GPRMC,150513.00,A,4808.93040,N,1709.01080,E,24.9,0.0,090320,0,W*5C
$GPGGA,150514.00,4808.93160,N,1709.02160,E,2,7,0.095,0.000,M,,*30
$GPRMC,150514.00,A,4808.93160,N,1709.02160,E,26.6,0.0,090320,0,W*59
$GPGGA,150515.00,4808.93280,N,1709.03240,E,2,7,0.095,0.000,M,,*3C
$GPRMC,150515.00,A,4808.93280,N,1709.03240,E,27.2,0.0,090320,0,W*50
$GPGGA,150516.00,4808.93460,N,1709.04380,E,2,7,0.095,0.000,M,,*3D
$GPRMC,150516.00,A,4808.93460,N,1709.04380,E,29.1,0.0,090320,0,W*5C
$GPGGA,150517.00,4808.93580,N,1709.05580,E,2,7,0.095,0.000,M,,*34
$GPRMC,150517.00,A,4808.93580,N,1709.05580,E,27.8,0.0,090320,0,W*52
$GPGGA,150518.00,4808.93760,N,1709.06760,E,2,7,0.095,0.000,M,,*38
$GPRMC,150518.00,A,4808.93760,N,1709.06760,E,27.5,0.0,090320,0,W*53
$GPGGA,150519.00,4808.93880,N,1709.07900,E,2,7,0.095,0.000,M,,*31
$GPRMC,150519.00,A,4808.93880,N,1709.07900,E,26.9,0.0,090320,0,W*57
$GPGGA,150520.00,4808.94120,N,1709.08880,E,2,7,0.076,0.000,M,,*34
$GPRMC,150520.00,A,4808.94120,N,1709.08880,E,26.4,0.0,090320,0,W*52
$GPGGA,150521.00,4808.94300,N,1709.09900,E,2,7,0.076,0.000,M,,*3D
$GPRMC,150521.00,A,4808.94300,N,1709.09900,E,25.4,0.0,090320,0,W*58
$GPGGA,150522.00,4808.94480,N,1709.10920,E,2,7,0.076,0.000,M,,*3B
$GPRMC,150522.00,A,4808.94480,N,1709.10920,E,24.9,0.0,090320,0,W*52
$GPGGA,150523.00,4808.94660,N,1709.11940,E,2,7,0.076,0.000,M,,*31
$GPRMC,150523.00,A,4808.94660,N,1709.11940,E,24.7,0.0,090320,0,W*56
$GPGGA,150524.00,4808.94840,N,1709.13000,E,2,7,0.057,0.000,M,,*36
$GPRMC,150524.00,A,4808.94840,N,1709.13000,E,24.3,0.0,090320,0,W*56
$GPGGA,150525.00,4808.95020,N,1709.13920,E,2,7,0.057,0.000,M,,*33
$GPRMC,150525.00,A,4808.95020,N,1709.13920,E,23.4,0.0,090320,0,W*53
$GPGGA,150526.00,4808.95140,N,1709.14820,E,2,7,0.057,0.000,M,,*31
$GPRMC,150526.00,A,4808.95140,N,1709.14820,E,24.8,0.0,090320,0,W*5A
$GPGGA,150527.00,4808.95260,N,1709.15840,E,2,7,0.057,0.000,M,,*36
$GPRMC,150527.00,A,4808.95260,N,1709.15840,E,24.9,0.0,090320,0,W*5C
$GPGGA,150528.00,4808.95380,N,1709.16800,E,2,7,0.057,0.000,M,,*31
$GPRMC,150528.00,A,4808.95380,N,1709.16800,E,24.1,0.0,090320,0,W*53
$GPGGA,150529.00,4808.95500,N,1709.17760,E,2,7,0.057,0.000,M,,*36
$GPRMC,150529.00,A,4808.95500,N,1709.17760,E,23.7,0.0,090320,0,W*55
$GPGGA,150530.00,4808.95680,N,1709.18660,E,2,7,0.057,0.000,M,,*3B
$GPRMC,150530.00,A,4808.95680,N,1709.18660,E,22.8,0.0,090320,0,W*56
$GPGGA,150531.00,4808.95800,N,1709.19560,E,2,7,0.057,0.000,M,,*3E
$GPRMC,150531.00,A,4808.95800,N,1709.19560,E,22.7,0.0,090320,0,W*5C
$GPGGA,150532.00,4808.95980,N,1709.20460,E,2,7,0.057,0.000,M,,*3F
$GPRMC,150532.00,A,4808.95980,N,1709.20460,E,20.0,0.0,090320,0,W*58
$GPGGA,150533.00,4808.96100,N,1709.21300,E,2,7,0.057,0.000,M,,*3D
$GPRMC,150533.00,A,4808.96100,N,1709.21300,E,19.7,0.0,090320,0,W*57
$GPGGA,150534.00,4808.96280,N,1709.22080,E,2,7,0.057,0.000,M,,*39
$GPRMC,150534.00,A,4808.96280,N,1709.22080,E,18.6,0.0,090320,0,W*53
$GPGGA,150535.00,4808.96340,N,1709.22800,E,2,7,0.057,0.000,M,,*35
$GPRMC,150535.00,A,4808.96340,N,1709.22800,E,16.1,0.0,090320,0,W*56
$GPGGA,150536.00,4808.96460,N,1709.23520,E,2,7,0.057,0.000,M,,*3D
$GPRMC,150536.00,A,4808.96460,N,1709.23520,E,18.6,0.0,090320,0,W*57
$GPGGA,150537.00,4808.96580,N,1709.24300,E,2,7,0.057,0.000,M,,*30
$GPRMC,150537.00,A,4808.96580,N,1709.24300,E,20.3,0.0,090320,0,W*54
$GPGGA,150538.00,4808.96700,N,1709.25140,E,2,7,0.057,0.000,M,,*32
$GPRMC,150538.00,A,4808.96700,N,1709.25140,E,21.1,0.0,090320,0,W*55
$GPGGA,150539.00,4808.96760,N,1709.26040,E,2,7,0.057,0.000,M,,*37
$GPRMC,150539.00,A,4808.96760,N,1709.26040,E,23.3,0.0,090320,0,W*50
$GPGGA,150540.00,4808.96760,N,1709.27100,E,2,7,0.057,0.000,M,,*3D
$GPRMC,150540.00,A,4808.96760,N,1709.27100,E,23.2,0.0,090320,0,W*5B
$GPGGA,150541.00,4808.96760,N,1709.28020,E,2,7,0.057,0.000,M,,*30
$GPRMC,150541.00,A,4808.96760,N,1709.28020,E,23.2,0.0,090320,0,W*56
$GPGGA,150542.00,4808.96700,N,1709.28980,E,2,7,0.057,0.000,M,,*36
$GPRMC,150542.00,A,4808.96700,N,1709.28980,E,21.0,0.0,090320,0,W*50
$GPGGA,150543.00,4808.96700,N,1709.29860,E,2,7,0.057,0.000,M,,*39
$GPRMC,150543.00,A,4808.96700,N,1709.29860,E,19.6,0.0,090320,0,W*52
$GPGGA,150544.00,4808.96640,N,1709.30600,E,2,7,0.057,0.000,M,,*3B
$GPRMC,150544.00,A,4808.96640,N,1709.30600,E,17.3,0.0,090320,0,W*5B
$GPGGA,150545.00,4808.96580,N,1709.31320,E,2,7,0.057,0.000,M,,*33
$GPRMC,150545.00,A,4808.96580,N,1709.31320,E,21.7,0.0,090320,0,W*52
$GPGGA,150546.00,4808.96460,N,1709.32280,E,2,7,0.057,0.000,M,,*37
$GPRMC,150546.00,A,4808.96460,N,1709.32280,E,21.4,0.0,090320,0,W*55
$GPGGA,150547.00,4808.96400,N,1709.33280,E,2,7,0.057,0.000,M,,*31
$GPRMC,150547.00,A,4808.96400,N,1709.33280,E,25.8,0.0,090320,0,W*5B
$GPGGA,150548.00,4808.96220,N,1709.34360,E,2,7,0.057,0.000,M,,*32
$GPRMC,150548.00,A,4808.96220,N,1709.34360,E,29.4,0.0,090320,0,W*58
$GPGGA,150549.00,4808.96160,N,1709.35580,E,2,7,0.057,0.000,M,,*3D
$GPRMC,150549.00,A,4808.96160,N,1709.35580,E,28.0,0.0,090320,0,W*52
$GPGGA,150550.00,4808.96040,N,1709.36780,E,2,7,0.057,0.000,M,,*37
$GPRMC,150550.00,A,4808.96040,N,1709.36780,E,29.8,0.0,090320,0,W*51
$GPGGA,150551.00,4808.95920,N,1709.38100,E,2,7,0.057,0.000,M,,*3A
$GPRMC,150551.00,A,4808.95920,N,1709.38100,E,31.3,0.0,090320,0,W*5E
$GPGGA,150552.00,4808.95800,N,1709.39460,E,2,7,0.057,0.000,M,,*38
$GPRMC,150552.00,A,4808.95800,N,1709.39460,E,31.9,0.0,090320,0,W*56
$GPGGA,150553.00,4808.95680,N,1709.40740,E,2,7,0.076,0.000,M,,*33
$GPRMC,150553.00,A,4808.95680,N,1709.40740,E,32.3,0.0,090320,0,W*57
$GPGGA,150554.00,4808.95560,N,1709.42060,E,2,7,0.076,0.000,M,,*3E
$GPRMC,150554.00,A,4808.95560,N,1709.42060,E,31.5,0.0,090320,0,W*5F
$GPGGA,150555.00,4808.95440,N,1709.43420,E,2,7,0.076,0.000,M,,*3D
$GPRMC,150555.00,A,4808.95440,N,1709.43420,E,28.7,0.0,090320,0,W*56
$GPGGA,150556.00,4808.95320,N,1709.44560,E,2,7,0.076,0.000,M,,*3D
$GPRMC,150556.00,A,4808.95320,N,1709.44560,E,27.1,0.0,090320,0,W*5F
$GPGGA,150557.00,4808.95080,N,1709.45540,E,2,7,0.076,0.000,M,,*36
$GPRMC,150557.00,A,4808.95080,N,1709.45540,E,25.6,0.0,090320,0,W*51
$GPGGA,150558.00,4808.94780,N,1709.46500,E,2,7,0.076,0.000,M,,*38
$GPRMC,150558.00,A,4808.94780,N,1709.46500,E,23.3,0.0,090320,0,W*5C
$GPGGA,150559.00,4808.94480,N,1709.47220,E,2,7,0.076,0.000,M,,*3E
$GPRMC,150559.00,A,4808.94480,N,1709.47220,E,18.3,0.0,090320,0,W*52
$GPGGA,150600.00,4808.94120,N,1709.47700,E,2,7,0.076,0.000,M,,*39
$GPRMC,150600.00,A,4808.94120,N,1709.47700,E,17.0,0.0,090320,0,W*59
$GPGGA,150601.00,4808.93700,N,1709.47860,E,2,7,0.076,0.000,M,,*32
$GPRMC,150601.00,A,4808.93700,N,1709.47860,E,17.5,0.0,090320,0,W*57
$GPGGA,150602.00,4808.93160,N,1709.47860,E,2,7,0.095,0.000,M,,*3C
$GPRMC,150602.00,A,4808.93160,N,1709.47860,E,19.1,0.0,090320,0,W*5E
$GPGGA,150603.00,4808.92620,N,1709.47860,E,2,7,0.114,0.000,M,,*37
$GPRMC,150603.00,A,4808.92620,N,1709.47860,E,23.4,0.0,090320,0,W*51
$GPGGA,150604.00,4808.91960,N,1709.47940,E,2,7,0.133,0.000,M,,*3E
$GPRMC,150604.00,A,4808.91960,N,1709.47940,E,24.0,0.0,090320,0,W*5E
$GPGGA,150605.00,4808.91300,N,1709.48000,E,2,7,0.152,0.000,M,,*36
$GPRMC,150605.00,A,4808.91300,N,1709.48000,E,23.5,0.0,090320,0,W*53
$GPGGA,150606.00,4808.90700,N,1709.48060,E,2,7,0.170,0.000,M,,*36
$GPRMC,150606.00,A,4808.90700,N,1709.48060,E,23.0,0.0,090320,0,W*56
$GPGGA,150607.00,4808.90040,N,1709.48180,E,2,7,0.189,0.000,M,,*3D
$GPRMC,150607.00,A,4808.90040,N,1709.48180,E,21.8,0.0,090320,0,W*51
$GPGGA,150608.00,4808.89440,N,1709.48240,E,2,7,0.170,0.000,M,,*37
$GPRMC,150608.00,A,4808.89440,N,1709.48240,E,19.6,0.0,090320,0,W*58
$GPGGA,150609.00,4808.88900,N,1709.48300,E,2,7,0.170,0.000,M,,*3B
$GPRMC,150609.00,A,4808.88900,N,1709.48300,E,18.6,0.0,090320,0,W*55
$GPGGA,150610.00,4808.88420,N,1709.48300,E,2,7,0.170,0.000,M,,*3C
$GPRMC,150610.00,A,4808.88420,N,1709.48300,E,18.0,0.0,090320,0,W*54
$GPGGA,150611.00,4808.87880,N,1709.48460,E,2,7,0.170,0.000,M,,*35
$GPRMC,150611.00,A,4808.87880,N,1709.48460,E,17.0,0.0,090320,0,W*52
$GPGGA,150612.00,4808.87460,N,1709.48460,E,2,7,0.170,0.000,M,,*34
$GPRMC,150612.00,A,4808.87460,N,1709.48460,E,14.6,0.0,090320,0,W*56
$GPGGA,150613.00,4808.87040,N,1709.48480,E,2,7,0.170,0.000,M,,*3D
$GPRMC,150613.00,A,4808.87040,N,1709.48480,E,15.1,0.0,090320,0,W*59
$GPGGA,150614.00,4808.86620,N,1709.48600,E,2,7,0.170,0.000,M,,*31
$GPRMC,150614.00,A,4808.86620,N,1709.48600,E,15.0,0.0,090320,0,W*54
$GPGGA,150615.00,4808.86200,N,1709.48660,E,2,7,0.170,0.000,M,,*30
$GPRMC,150615.00,A,4808.86200,N,1709.48660,E,13.9,0.0,090320,0,W*5A
$GPGGA,150616.00,4808.85840,N,1709.48780,E,2,7,0.170,0.000,M,,*31
$GPRMC,150616.00,A,4808.85840,N,1709.48780,E,14.9,0.0,090320,0,W*5C
$GPGGA,150617.00,4808.85420,N,1709.48900,E,2,7,0.170,0.000,M,,*3C
$GPRMC,150617.00,A,4808.85420,N,1709.48900,E,16.5,0.0,090320,0,W*5F
$GPGGA,150618.00,4808.84940,N,1709.49060,E,2,7,0.170,0.000,M,,*37
$GPRMC,150618.00,A,4808.84940,N,1709.49060,E,16.3,0.0,090320,0,W*52
$GPGGA,150619.00,4808.84520,N,1709.49260,E,2,7,0.170,0.000,M,,*3E
$GPRMC,150619.00,A,4808.84520,N,1709.49260,E,15.4,0.0,090320,0,W*5F
$GPGGA,150620.00,4808.84160,N,1709.49500,E,2,7,0.189,0.000,M,,*33
$GPRMC,150620.00,A,4808.84160,N,1709.49500,E,15.4,0.0,090320,0,W*54
$GPGGA,150621.00,4808.83800,N,1709.49860,E,2,7,0.189,0.000,M,,*31
$GPRMC,150621.00,A,4808.83800,N,1709.49860,E,14.8,0.0,090320,0,W*5B
$GPGGA,150622.00,4808.83500,N,1709.50200,E,2,7,0.170,0.000,M,,*3D
$GPRMC,150622.00,A,4808.83500,N,1709.50200,E,12.9,0.0,090320,0,W*56
$GPGGA,150623.00,4808.83200,N,1709.50520,E,2,7,0.152,0.000,M,,*3E
$GPRMC,150623.00,A,4808.83200,N,1709.50520,E,12.1,0.0,090320,0,W*5D
$GPGGA,150624.00,4808.82960,N,1709.50760,E,2,7,0.133,0.000,M,,*34
$GPRMC,150624.00,A,4808.82960,N,1709.50760,E,10.5,0.0,090320,0,W*56
$GPGGA,150625.00,4808.82720,N,1709.51000,E,2,7,0.114,0.000,M,,*3A
$GPRMC,150625.00,A,4808.82720,N,1709.51000,E,10.3,0.0,090320,0,W*5B
$GPGGA,150626.00,4808.82540,N,1709.51300,E,2,7,0.076,0.000,M,,*3B
$GPRMC,150626.00,A,4808.82540,N,1709.51300,E,9.2,0.0,090320,0,W*66
$GPGGA,150627.00,4808.82360,N,1709.51540,E,2,7,0.076,0.000,M,,*3C
$GPRMC,150627.00,A,4808.82360,N,1709.51540,E,11.3,0.0,090320,0,W*59
$GPGGA,150628.00,4808.82060,N,1709.51880,E,2,7,0.076,0.000,M,,*31
$GPRMC,150628.00,A,4808.82060,N,1709.51880,E,11.2,0.0,090320,0,W*55
$GPGGA,150629.00,4808.81880,N,1709.52080,E,2,7,0.076,0.000,M,,*3E
$GPRMC,150629.00,A,4808.81880,N,1709.52080,E,13.6,0.0,090320,0,W*5C
$GPGGA,150630.00,4808.81520,N,1709.52420,E,2,7,0.057,0.000,M,,*3C
$GPRMC,150630.00,A,4808.81520,N,1709.52420,E,15.8,0.0,090320,0,W*55
$GPGGA,150631.00,4808.81160,N,1709.52740,E,2,7,0.057,0.000,M,,*38
$GPRMC,150631.00,A,4808.81160,N,1709.52740,E,14.1,0.0,090320,0,W*59
$GPGGA,150632.00,4808.80860,N,1709.53100,E,2,7,0.057,0.000,M,,*30
$GPRMC,150632.00,A,4808.80860,N,1709.53100,E,15.4,0.0,090320,0,W*55
$GPGGA,150633.00,4808.80500,N,1709.53500,E,2,7,0.057,0.000,M,,*3E
$GPRMC,150633.00,A,4808.80500,N,1709.53500,E,14.8,0.0,090320,0,W*56
$GPGGA,150634.00,4808.80140,N,1709.53880,E,2,7,0.057,0.000,M,,*3C
$GPRMC,150634.00,A,4808.80140,N,1709.53880,E,17.0,0.0,090320,0,W*5F
$GPGGA,150635.00,4808.79780,N,1709.54240,E,2,7,0.057,0.000,M,,*30
$GPRMC,150635.00,A,4808.79780,N,1709.54240,E,16.9,0.0,090320,0,W*5B
$GPGGA,150636.00,4808.79360,N,1709.54720,E,2,7,0.057,0.000,M,,*3A
$GPRMC,150636.00,A,4808.79360,N,1709.54720,E,16.9,0.0,090320,0,W*51
$GPGGA,150637.00,4808.79000,N,1709.55180,E,2,7,0.057,0.000,M,,*33
$GPRMC,150637.00,A,4808.79000,N,1709.55180,E,17.5,0.0,090320,0,W*55
$GPGGA,150638.00,4808.78580,N,1709.55560,E,2,7,0.057,0.000,M,,*3A
$GPRMC,150638.00,A,4808.78580,N,1709.55560,E,19.8,0.0,090320,0,W*5F
$GPGGA,150639.00,4808.78160,N,1709.56040,E,2,7,0.057,0.000,M,,*35
$GPRMC,150639.00,A,4808.78160,N,1709.56040,E,17.6,0.0,090320,0,W*50
$GPGGA,150640.00,4808.77800,N,1709.56460,E,2,7,0.057,0.000,M,,*3D
$GPRMC,150640.00,A,4808.77800,N,1709.56460,E,16.8,0.0,090320,0,W*57
$GPGGA,150641.00,4808.77620,N,1709.57120,E,2,7,0.057,0.000,M,,*30
$GPRMC,150641.00,A,4808.77620,N,1709.57120,E,17.5,0.0,090320,0,W*56
$GPGGA,150642.00,4808.77560,N,1709.57840,E,2,7,0.057,0.000,M,,*3B
$GPRMC,150642.00,A,4808.77560,N,1709.57840,E,19.1,0.0,090320,0,W*57
$GPGGA,150643.00,4808.77740,N,1709.58620,E,2,7,0.057,0.000,M,,*3D
$GPRMC,150643.00,A,4808.77740,N,1709.58620,E,20.6,0.0,090320,0,W*5C
$GPGGA,150644.00,4808.77980,N,1709.59400,E,2,7,0.057,0.000,M,,*39
$GPRMC,150644.00,A,4808.77980,N,1709.59400,E,21.9,0.0,090320,0,W*56
$GPGGA,150645.00,4808.78160,N,1709.60280,E,2,7,0.057,0.000,M,,*35
$GPRMC,150645.00,A,4808.78160,N,1709.60280,E,20.4,0.0,090320,0,W*56
$GPGGA,150646.00,4808.78340,N,1709.61080,E,2,7,0.057,0.000,M,,*35
$GPRMC,150646.00,A,4808.78340,N,1709.61080,E,20.4,0.0,090320,0,W*56
$GPGGA,150647.00,4808.78520,N,1709.61960,E,2,7,0.057,0.000,M,,*33
$GPRMC,150647.00,A,4808.78520,N,1709.61960,E,22.1,0.0,090320,0,W*57
$GPGGA,150648.00,4808.78700,N,1709.62760,E,2,7,0.057,0.000,M,,*31
$GPRMC,150648.00,A,4808.78700,N,1709.62760,E,21.0,0.0,090320,0,W*57
$GPGGA,150649.00,4808.78820,N,1709.63640,E,2,7,0.057,0.000,M,,*3F
$GPRMC,150649.00,A,4808.78820,N,1709.63640,E,20.8,0.0,090320,0,W*50
$GPGGA,150650.00,4808.78940,N,1709.64440,E,2,7,0.057,0.000,M,,*35
$GPRMC,150650.00,A,4808.78940,N,1709.64440,E,20.3,0.0,090320,0,W*51
$GPGGA,150651.00,4808.79060,N,1709.65220,E,2,7,0.057,0.000,M,,*3F
$GPRMC,150651.00,A,4808.79060,N,1709.65220,E,19.2,0.0,090320,0,W*50
$GPGGA,150652.00,4808.79180,N,1709.65940,E,2,7,0.057,0.000,M,,*3E
$GPRMC,150652.00,A,4808.79180,N,1709.65940,E,17.1,0.0,090320,0,W*5C
$GPGGA,150653.00,4808.79300,N,1709.66600,E,2,7,0.057,0.000,M,,*3D
$GPRMC,150653.00,A,4808.79300,N,1709.66600,E,15.7,0.0,090320,0,W*5B
$GPGGA,150654.00,4808.79360,N,1709.67200,E,2,7,0.057,0.000,M,,*39
$GPRMC,150654.00,A,4808.79360,N,1709.67200,E,12.6,0.0,090320,0,W*59
$GPGGA,150655.00,4808.79420,N,1709.67680,E,2,7,0.057,0.000,M,,*37
$GPRMC,150655.00,A,4808.79420,N,1709.67680,E,9.1,0.0,090320,0,W*6A
$GPGGA,150656.00,4808.79480,N,1709.67980,E,2,7,0.076,0.000,M,,*32
$GPRMC,150656.00,A,4808.79480,N,1709.67980,E,6.9,0.0,090320,0,W*6B
$GPGGA,150657.00,4808.79540,N,1709.68220,E,2,7,0.076,0.000,M,,*30
$GPRMC,150657.00,A,4808.79540,N,1709.68220,E,6.2,0.0,090320,0,W*62
$GPGGA,150658.00,4808.79600,N,1709.68460,E,2,7,0.076,0.000,M,,*3A
$GPRMC,150658.00,A,4808.79600,N,1709.68460,E,7.4,0.0,090320,0,W*6F
$GPGGA,150659.00,4808.79660,N,1709.68740,E,2,7,0.076,0.000,M,,*3C
$GPRMC,150659.00,A,4808.79660,N,1709.68740,E,8.3,0.0,090320,0,W*61
$GPGGA,150700.00,4808.79660,N,1709.69060,E,2,7,0.076,0.000,M,,*35
$GPRMC,150700.00,A,4808.79660,N,1709.69060,E,9.9,0.0,090320,0,W*63
$GPGGA,150701.00,4808.79720,N,1709.69480,E,2,7,0.057,0.000,M,,*38
$GPRMC,150701.00,A,4808.79720,N,1709.69480,E,8.2,0.0,090320,0,W*67
$GPGGA,150702.00,4808.79840,N,1709.69880,E,2,7,0.076,0.000,M,,*3D
$GPRMC,150702.00,A,4808.79840,N,1709.69880,E,8.3,0.0,090320,0,W*60
$GPGGA,150703.00,4808.79900,N,1709.70140,E,2,7,0.076,0.000,M,,*34
$GPRMC,150703.00,A,4808.79900,N,1709.70140,E,7.1,0.0,090320,0,W*64
$GPGGA,150704.00,4808.80020,N,1709.70440,E,2,7,0.076,0.000,M,,*3B
$GPRMC,150704.00,A,4808.80020,N,1709.70440,E,7.4,0.0,090320,0,W*6E
$GPGGA,150705.00,4808.80020,N,1709.70680,E,2,7,0.076,0.000,M,,*34
$GPRMC,150705.00,A,4808.80020,N,1709.70680,E,6.3,0.0,090320,0,W*67
$GPGGA,150706.00,4808.80020,N,1709.71020,E,2,7,0.076,0.000,M,,*3A
$GPRMC,150706.00,A,4808.80020,N,1709.71020,E,6.0,0.0,090320,0,W*6A
$GPGGA,150707.00,4808.80080,N,1709.71160,E,2,7,0.076,0.000,M,,*34
$GPRMC,150707.00,A,4808.80080,N,1709.71160,E,6.7,0.0,090320,0,W*63
$GPGGA,150708.00,4808.80200,N,1709.71460,E,2,7,0.076,0.000,M,,*34
$GPRMC,150708.00,A,4808.80200,N,1709.71460,E,9.7,0.0,090320,0,W*6C
$GPGGA,150709.00,4808.80380,N,1709.71820,E,2,7,0.076,0.000,M,,*34
$GPRMC,150709.00,A,4808.80380,N,1709.71820,E,11.1,0.0,090320,0,W*53
$GPGGA,150710.00,4808.80440,N,1709.72300,E,2,7,0.076,0.000,M,,*3D
$GPRMC,150710.00,A,4808.80440,N,1709.72300,E,10.8,0.0,090320,0,W*52
$GPGGA,150711.00,4808.80500,N,1709.72780,E,2,7,0.076,0.000,M,,*35
$GPRMC,150711.00,A,4808.80500,N,1709.72780,E,13.4,0.0,090320,0,W*55
$GPGGA,150712.00,4808.80680,N,1709.73380,E,2,7,0.057,0.000,M,,*3B
$GPRMC,150712.00,A,4808.80680,N,1709.73380,E,16.5,0.0,090320,0,W*5C
$GPGGA,150713.00,4808.80800,N,1709.74040,E,2,7,0.076,0.000,M,,*37
$GPRMC,150713.00,A,4808.80800,N,1709.74040,E,18.8,0.0,090320,0,W*50
$GPGGA,150714.00,4808.80920,N,1709.74820,E,2,7,0.076,0.000,M,,*3D
$GPRMC,150714.00,A,4808.80920,N,1709.74820,E,17.2,0.0,090320,0,W*5F
$GPGGA,150715.00,4808.81040,N,1709.75540,E,2,7,0.076,0.000,M,,*38
$GPRMC,150715.00,A,4808.81040,N,1709.75540,E,16.7,0.0,090320,0,W*5E
$GPGGA,150716.00,4808.81100,N,1709.76200,E,2,7,0.076,0.000,M,,*3E
$GPRMC,150716.00,A,4808.81100,N,1709.76200,E,14.6,0.0,090320,0,W*5B
$GPGGA,150717.00,4808.81160,N,1709.76740,E,2,7,0.076,0.000,M,,*38
$GPRMC,150717.00,A,4808.81160,N,1709.76740,E,11.6,0.0,090320,0,W*58
$GPGGA,150718.00,4808.81100,N,1709.77200,E,2,7,0.057,0.000,M,,*32
$GPRMC,150718.00,A,4808.81100,N,1709.77200,E,9.4,0.0,090320,0,W*6A
$GPGGA,150719.00,4808.80920,N,1709.77460,E,2,7,0.057,0.000,M,,*38
$GPRMC,150719.00,A,4808.80920,N,1709.77460,E,11.7,0.0,090320,0,W*5A
$GPGGA,150720.00,4808.80560,N,1709.77740,E,2,7,0.057,0.000,M,,*3B
$GPRMC,150720.00,A,4808.80560,N,1709.77740,E,14.2,0.0,090320,0,W*59
$GPGGA,150721.00,4808.80140,N,1709.77820,E,2,7,0.057,0.000,M,,*35
$GPRMC,150721.00,A,4808.80140,N,1709.77820,E,18.5,0.0,090320,0,W*5C
$GPGGA,150722.00,4808.79600,N,1709.77940,E,2,7,0.057,0.000,M,,*34
$GPRMC,150722.00,A,4808.79600,N,1709.77940,E,18.4,0.0,090320,0,W*5C
$GPGGA,150723.00,4808.79060,N,1709.78060,E,2,7,0.057,0.000,M,,*31
$GPRMC,150723.00,A,4808.79060,N,1709.78060,E,21.4,0.0,090320,0,W*53
$GPGGA,150724.00,4808.78460,N,1709.78180,E,2,7,0.057,0.000,M,,*3C
$GPRMC,150724.00,A,4808.78460,N,1709.78180,E,24.6,0.0,090320,0,W*59
$GPGGA,150725.00,4808.77740,N,1709.78340,E,2,7,0.057,0.000,M,,*3D
$GPRMC,150725.00,A,4808.77740,N,1709.78340,E,23.1,0.0,090320,0,W*58
$GPGGA,150726.00,4808.77140,N,1709.78420,E,2,7,0.057,0.000,M,,*39
$GPRMC,150726.00,A,4808.77140,N,1709.78420,E,21.7,0.0,090320,0,W*58
$GPGGA,150727.00,4808.76540,N,1709.78660,E,2,7,0.057,0.000,M,,*3B
$GPRMC,150727.00,A,4808.76540,N,1709.78660,E,22.2,0.0,090320,0,W*5C
$GPGGA,150728.00,4808.75940,N,1709.78720,E,2,7,0.057,0.000,M,,*3E
$GPRMC,150728.00,A,4808.75940,N,1709.78720,E,20.3,0.0,090320,0,W*5A
$GPGGA,150729.00,4808.75400,N,1709.78880,E,2,7,0.057,0.000,M,,*33
$GPRMC,150729.00,A,4808.75400,N,1709.78880,E,18.4,0.0,090320,0,W*5B
$GPGGA,150730.00,4808.74920,N,1709.78960,E,2,7,0.057,0.000,M,,*3A
$GPRMC,150730.00,A,4808.74920,N,1709.78960,E,14.9,0.0,090320,0,W*53
$GPGGA,150731.00,4808.74560,N,1709.79020,E,2,7,0.057,0.000,M,,*3F
$GPRMC,150731.00,A,4808.74560,N,1709.79020,E,14.5,0.0,090320,0,W*5A
$GPGGA,150732.00,4808.74200,N,1709.79200,E,2,7,0.057,0.000,M,,*3D
$GPRMC,150732.00,A,4808.74200,N,1709.79200,E,11.1,0.0,090320,0,W*59
$GPGGA,150733.00,4808.73900,N,1709.79260,E,2,7,0.057,0.000,M,,*36
$GPRMC,150733.00,A,4808.73900,N,1709.79260,E,10.9,0.0,090320,0,W*5B
$GPGGA,150734.00,4808.73660,N,1709.79320,E,2,7,0.057,0.000,M,,*3D
$GPRMC,150734.00,A,4808.73660,N,1709.79320,E,10.7,0.0,090320,0,W*5E
$GPGGA,150735.00,4808.73420,N,1709.79320,E,2,7,0.057,0.000,M,,*3A
$GPRMC,150735.00,A,4808.73420,N,1709.79320,E,8.6,0.0,090320,0,W*61
$GPGGA,150736.00,4808.73180,N,1709.79260,E,2,7,0.076,0.000,M,,*30
$GPRMC,150736.00,A,4808.73180,N,1709.79260,E,11.7,0.0,090320,0,W*51
$GPGGA,150737.00,4808.72820,N,1709.79320,E,2,7,0.076,0.000,M,,*36
$GPRMC,150737.00,A,4808.72820,N,1709.79320,E,10.5,0.0,090320,0,W*54
$GPGGA,150738.00,4808.72580,N,1709.79320,E,2,7,0.076,0.000,M,,*3E
$GPRMC,150738.00,A,4808.72580,N,1709.79320,E,9.2,0.0,090320,0,W*63
$GPGGA,150739.00,4808.72280,N,1709.79420,E,2,7,0.076,0.000,M,,*3F
$GPRMC,150739.00,A,4808.72280,N,1709.79420,E,9.9,0.0,090320,0,W*69
$GPGGA,150740.00,4808.72040,N,1709.79500,E,2,7,0.076,0.000,M,,*3C
$GPRMC,150740.00,A,4808.72040,N,1709.79500,E,10.1,0.0,090320,0,W*5A
$GPGGA,150741.00,4808.71680,N,1709.79560,E,2,7,0.057,0.000,M,,*31
$GPRMC,150741.00,A,4808.71680,N,1709.79560,E,14.6,0.0,090320,0,W*57
$GPGGA,150742.00,4808.71260,N,1709.79740,E,2,7,0.057,0.000,M,,*38
$GPRMC,150742.00,A,4808.71260,N,1709.79740,E,19.2,0.0,090320,0,W*57
$GPGGA,150743.00,4808.70660,N,1709.79860,E,2,7,0.057,0.000,M,,*31
$GPRMC,150743.00,A,4808.70660,N,1709.79860,E,22.2,0.0,090320,0,W*56
$GPGGA,150744.00,4808.70060,N,1709.80040,E,2,7,0.057,0.000,M,,*3C
$GPRMC,150744.00,A,4808.70060,N,1709.80040,E,22.5,0.0,090320,0,W*5C
$GPGGA,150745.00,4808.69400,N,1709.80220,E,2,7,0.057,0.000,M,,*33
$GPRMC,150745.00,A,4808.69400,N,1709.80220,E,26.2,0.0,090320,0,W*50
$GPGGA,150746.00,4808.68620,N,1709.80340,E,2,7,0.057,0.000,M,,*36
$GPRMC,150746.00,A,4808.68620,N,1709.80340,E,28.1,0.0,090320,0,W*58
$GPGGA,150747.00,4808.67840,N,1709.80580,E,2,7,0.057,0.000,M,,*3A
$GPRMC,150747.00,A,4808.67840,N,1709.80580,E,32.3,0.0,090320,0,W*5D
$GPGGA,150748.00,4808.66880,N,1709.80760,E,2,7,0.057,0.000,M,,*34
$GPRMC,150748.00,A,4808.66880,N,1709.80760,E,31.0,0.0,090320,0,W*53
$GPGGA,150749.00,4808.66040,N,1709.80880,E,2,7,0.057,0.000,M,,*30
$GPRMC,150749.00,A,4808.66040,N,1709.80880,E,33.8,0.0,090320,0,W*5D
$GPGGA,150750.00,4808.65080,N,1709.81100,E,2,7,0.057,0.000,M,,*37
$GPRMC,150750.00,A,4808.65080,N,1709.81100,E,35.6,0.0,090320,0,W*52
$GPGGA,150751.00,4808.64120,N,1709.81300,E,2,7,0.057,0.000,M,,*3E
$GPRMC,150751.00,A,4808.64120,N,1709.81300,E,34.8,0.0,090320,0,W*54
$GPGGA,150752.00,4808.63160,N,1709.81420,E,2,7,0.057,0.000,M,,*3B
$GPRMC,150752.00,A,4808.63160,N,1709.81420,E,35.2,0.0,090320,0,W*5A
$GPGGA,150753.00,4808.62140,N,1709.81540,E,2,7,0.057,0.000,M,,*3E
$GPRMC,150753.00,A,4808.62140,N,1709.81540,E,36.6,0.0,090320,0,W*58
$GPGGA,150754.00,4808.61180,N,1709.81700,E,2,7,0.057,0.000,M,,*30
$GPRMC,150754.00,A,4808.61180,N,1709.81700,E,32.3,0.0,090320,0,W*57
$GPGGA,150755.00,4808.60280,N,1709.81780,E,2,7,0.057,0.000,M,,*3B
$GPRMC,150755.00,A,4808.60280,N,1709.81780,E,30.8,0.0,090320,0,W*55
$GPGGA,150756.00,4808.59440,N,1709.81960,E,2,7,0.057,0.000,M,,*38
$GPRMC,150756.00,A,4808.59440,N,1709.81960,E,29.1,0.0,090320,0,W*57
$GPGGA,150757.00,4808.58720,N,1709.82240,E,2,7,0.057,0.000,M,,*37
$GPRMC,150757.00,A,4808.58720,N,1709.82240,E,28.0,0.0,090320,0,W*58
$GPGGA,150758.00,4808.58000,N,1709.82380,E,2,7,0.057,0.000,M,,*30
$GPRMC,150758.00,A,4808.58000,N,1709.82380,E,24.1,0.0,090320,0,W*52
$GPGGA,150759.00,4808.57340,N,1709.82500,E,2,7,0.057,0.000,M,,*37
$GPRMC,150759.00,A,4808.57340,N,1709.82500,E,22.0,0.0,090320,0,W*52
$GPGGA,150800.00,4808.56800,N,1709.82620,E,2,7,0.057,0.000,M,,*3B
$GPRMC,150800.00,A,4808.56800,N,1709.82620,E,18.6,0.0,090320,0,W*51
$GPGGA,150801.00,4808.56380,N,1709.82840,E,2,7,0.057,0.000,M,,*31
$GPRMC,150801.00,A,4808.56380,N,1709.82840,E,17.5,0.0,090320,0,W*57
$GPGGA,150802.00,4808.56080,N,1709.83380,E,2,7,0.057,0.000,M,,*37
$GPRMC,150802.00,A,4808.56080,N,1709.83380,E,18.2,0.0,090320,0,W*59
$GPGGA,150803.00,4808.56080,N,1709.84180,E,2,7,0.057,0.000,M,,*33
$GPRMC,150803.00,A,4808.56080,N,1709.84180,E,19.6,0.0,090320,0,W*58
$GPGGA,150804.00,4808.56260,N,1709.85080,E,2,7,0.057,0.000,M,,*38
$GPRMC,150804.00,A,4808.56260,N,1709.85080,E,23.7,0.0,090320,0,W*5B
$GPGGA,150805.00,4808.56440,N,1709.86100,E,2,7,0.057,0.000,M,,*37
$GPRMC,150805.00,A,4808.56440,N,1709.86100,E,25.0,0.0,090320,0,W*55
$GPGGA,150806.00,4808.56620,N,1709.87120,E,2,7,0.076,0.000,M,,*30
$GPRMC,150806.00,A,4808.56620,N,1709.87120,E,27.5,0.0,090320,0,W*56
$GPGGA,150807.00,4808.56680,N,1709.88320,E,2,7,0.076,0.000,M,,*36
$GPRMC,150807.00,A,4808.56680,N,1709.88320,E,27.7,0.0,090320,0,W*52
$GPGGA,150808.00,4808.56800,N,1709.89560,E,2,7,0.076,0.000,M,,*3C
$GPRMC,150808.00,A,4808.56800,N,1709.89560,E,30.2,0.0,090320,0,W*5B
$GPGGA,150809.00,4808.56980,N,1709.90780,E,2,7,0.076,0.000,M,,*30
$GPRMC,150809.00,A,4808.56980,N,1709.90780,E,32.4,0.0,090320,0,W*53
$GPGGA,150810.00,4808.57100,N,1709.92100,E,2,7,0.076,0.000,M,,*35
$GPRMC,150810.00,A,4808.57100,N,1709.92100,E,31.9,0.0,090320,0,W*58
$GPGGA,150811.00,4808.57220,N,1709.93420,E,2,7,0.057,0.000,M,,*30
$GPRMC,150811.00,A,4808.57220,N,1709.93420,E,32.2,0.0,090320,0,W*56
$GPGGA,150812.00,4808.57280,N,1709.94800,E,2,7,0.057,0.000,M,,*30
$GPRMC,150812.00,A,4808.57280,N,1709.94800,E,33.8,0.0,090320,0,W*5D
$GPGGA,150813.00,4808.57340,N,1709.96180,E,2,7,0.057,0.000,M,,*3F
$GPRMC,150813.00,A,4808.57340,N,1709.96180,E,35.3,0.0,090320,0,W*5F
$GPGGA,150814.00,4808.57520,N,1709.97680,E,2,7,0.057,0.000,M,,*3E
$GPRMC,150814.00,A,4808.57520,N,1709.97680,E,36.4,0.0,090320,0,W*5A
$GPGGA,150815.00,4808.57640,N,1709.99180,E,2,7,0.057,0.000,M,,*33
$GPRMC,150815.00,A,4808.57640,N,1709.99180,E,37.2,0.0,090320,0,W*50
$GPGGA,150816.00,4808.57760,N,1710.00680,E,2,7,0.057,0.000,M,,*3C
$GPRMC,150816.00,A,4808.57760,N,1710.00680,E,37.3,0.0,090320,0,W*5E
$GPGGA,150817.00,4808.57940,N,1710.02240,E,2,7,0.057,0.000,M,,*3B
$GPRMC,150817.00,A,4808.57940,N,1710.02240,E,37.1,0.0,090320,0,W*5B
$GPGGA,150818.00,4808.58000,N,1710.03740,E,2,7,0.057,0.000,M,,*32
$GPRMC,150818.00,A,4808.58000,N,1710.03740,E,35.3,0.0,090320,0,W*52
$GPGGA,150819.00,4808.58120,N,1710.05180,E,2,7,0.057,0.000,M,,*3C
$GPRMC,150819.00,A,4808.58120,N,1710.05180,E,34.5,0.0,090320,0,W*5B
$GPGGA,150820.00,4808.58240,N,1710.06620,E,2,7,0.057,0.000,M,,*3D
$GPRMC,150820.00,A,4808.58240,N,1710.06620,E,32.4,0.0,090320,0,W*5D
$GPGGA,150821.00,4808.58360,N,1710.07940,E,2,7,0.057,0.000,M,,*37
$GPRMC,150821.00,A,4808.58360,N,1710.07940,E,30.9,0.0,090320,0,W*58
$GPGGA,150822.00,4808.58480,N,1710.09080,E,2,7,0.057,0.000,M,,*36
$GPRMC,150822.00,A,4808.58480,N,1710.09080,E,26.2,0.0,090320,0,W*55
$GPGGA,150823.00,4808.58540,N,1710.10100,E,2,7,0.057,0.000,M,,*3B
$GPRMC,150823.00,A,4808.58540,N,1710.10100,E,23.4,0.0,090320,0,W*5B
$GPGGA,150824.00,4808.58660,N,1710.10980,E,2,7,0.057,0.000,M,,*3D
$GPRMC,150824.00,A,4808.58660,N,1710.10980,E,16.6,0.0,090320,0,W*59
$GPGGA,150825.00,4808.58720,N,1710.11580,E,2,7,0.057,0.000,M,,*34
$GPRMC,150825.00,A,4808.58720,N,1710.11580,E,15.3,0.0,090320,0,W*56
$GPGGA,150826.00,4808.58720,N,1710.12120,E,2,7,0.057,0.000,M,,*3A
$GPRMC,150826.00,A,4808.58720,N,1710.12120,E,10.9,0.0,090320,0,W*57
$GPGGA,150827.00,4808.58660,N,1710.12380,E,2,7,0.057,0.000,M,,*36
$GPRMC,150827.00,A,4808.58660,N,1710.12380,E,7.6,0.0,090320,0,W*62
$GPGGA,150828.00,4808.58540,N,1710.12560,E,2,7,0.057,0.000,M,,*30
$GPRMC,150828.00,A,4808.58540,N,1710.12560,E,6.9,0.0,090320,0,W*6A
$GPGGA,150829.00,4808.58360,N,1710.12740,E,2,7,0.057,0.000,M,,*35
$GPRMC,150829.00,A,4808.58360,N,1710.12740,E,9.2,0.0,090320,0,W*6B
$GPGGA,150830.00,4808.58000,N,1710.12800,E,2,7,0.057,0.000,M,,*33
$GPRMC,150830.00,A,4808.58000,N,1710.12800,E,12.1,0.0,090320,0,W*54
$GPGGA,150831.00,4808.57640,N,1710.12800,E,2,7,0.057,0.000,M,,*3F
$GPRMC,150831.00,A,4808.57640,N,1710.12800,E,16.6,0.0,090320,0,W*5B
$GPGGA,150832.00,4808.57160,N,1710.12560,E,2,7,0.057,0.000,M,,*32
$GPRMC,150832.00,A,4808.57160,N,1710.12560,E,21.5,0.0,090320,0,W*51
$GPGGA,150833.00,4808.56560,N,1710.12200,E,2,7,0.057,0.000,M,,*37
$GPRMC,150833.00,A,4808.56560,N,1710.12200,E,21.4,0.0,090320,0,W*55
$GPGGA,150834.00,4808.56020,N,1710.11840,E,2,7,0.057,0.000,M,,*3C
$GPRMC,150834.00,A,4808.56020,N,1710.11840,E,25.1,0.0,090320,0,W*5F
$GPGGA,150835.00,4808.55360,N,1710.11360,E,2,7,0.057,0.000,M,,*30
$GPRMC,150835.00,A,4808.55360,N,1710.11360,E,28.9,0.0,090320,0,W*56
$GPGGA,150836.00,4808.54580,N,1710.10880,E,2,7,0.057,0.000,M,,*3E
$GPRMC,150836.00,A,4808.54580,N,1710.10880,E,29.6,0.0,090320,0,W*56
$GPGGA,150837.00,4808.53800,N,1710.10380,E,2,7,0.057,0.000,M,,*36
$GPRMC,150837.00,A,4808.53800,N,1710.10380,E,30.1,0.0,090320,0,W*51
$GPGGA,150838.00,4808.53140,N,1710.09840,E,2,7,0.057,0.000,M,,*3B
$GPRMC,150838.00,A,4808.53140,N,1710.09840,E,28.5,0.0,090320,0,W*51
$GPGGA,150839.00,4808.52420,N,1710.09320,E,2,7,0.057,0.000,M,,*35
$GPRMC,150839.00,A,4808.52420,N,1710.09320,E,28.6,0.0,090320,0,W*5C
$GPGGA,150840.00,4808.51880,N,1710.09080,E,2,7,0.057,0.000,M,,*37
$GPRMC,150840.00,A,4808.51880,N,1710.09080,E,17.7,0.0,090320,0,W*53
$GPGGA,150841.00,4808.51400,N,1710.09080,E,2,7,0.057,0.000,M,,*32
$GPRMC,150841.00,A,4808.51400,N,1710.09080,E,19.6,0.0,090320,0,W*59
$GPGGA,150842.00,4808.50980,N,1710.09560,E,2,7,0.057,0.000,M,,*3E
$GPRMC,150842.00,A,4808.50980,N,1710.09560,E,19.8,0.0,090320,0,W*5B
$GPGGA,150843.00,4808.50740,N,1710.10440,E,2,7,0.057,0.000,M,,*36
$GPRMC,150843.00,A,4808.50740,N,1710.10440,E,21.2,0.0,090320,0,W*52
$GPGGA,150844.00,4808.50740,N,1710.11360,E,2,7,0.057,0.000,M,,*35
$GPRMC,150844.00,A,4808.50740,N,1710.11360,E,22.1,0.0,090320,0,W*51
$GPGGA,150845.00,4808.50860,N,1710.12320,E,2,7,0.057,0.000,M,,*3E
$GPRMC,150845.00,A,4808.50860,N,1710.12320,E,23.0,0.0,090320,0,W*5A
$GPGGA,150846.00,4808.50980,N,1710.13340,E,2,7,0.057,0.000,M,,*35
$GPRMC,150846.00,A,4808.50980,N,1710.13340,E,24.7,0.0,090320,0,W*51
$GPGGA,150847.00,4808.51100,N,1710.14360,E,2,7,0.057,0.000,M,,*30
$GPRMC,150847.00,A,4808.51100,N,1710.14360,E,27.3,0.0,090320,0,W*53
$GPGGA,150848.00,4808.51220,N,1710.15500,E,2,7,0.057,0.000,M,,*3F
$GPRMC,150848.00,A,4808.51220,N,1710.15500,E,27.3,0.0,090320,0,W*5C
$GPGGA,150849.00,4808.51340,N,1710.16640,E,2,7,0.057,0.000,M,,*3D
$GPRMC,150849.00,A,4808.51340,N,1710.16640,E,28.4,0.0,090320,0,W*56
$GPGGA,150850.00,4808.51460,N,1710.17900,E,2,7,0.057,0.000,M,,*3A
$GPRMC,150850.00,A,4808.51460,N,1710.17900,E,31.6,0.0,090320,0,W*5B
$GPGGA,150851.00,4808.51520,N,1710.19220,E,2,7,0.057,0.000,M,,*39
$GPRMC,150851.00,A,4808.51520,N,1710.19220,E,33.0,0.0,090320,0,W*5C
$GPGGA,150852.00,4808.51580,N,1710.20600,E,2,7,0.057,0.000,M,,*3C
$GPRMC,150852.00,A,4808.51580,N,1710.20600,E,34.4,0.0,090320,0,W*5A
$GPGGA,150853.00,4808.51580,N,1710.22040,E,2,7,0.057,0.000,M,,*3D
$GPRMC,150853.00,A,4808.51580,N,1710.22040,E,33.4,0.0,090320,0,W*5C
$GPGGA,150854.00,4808.51700,N,1710.23420,E,2,7,0.057,0.000,M,,*33
$GPRMC,150854.00,A,4808.51700,N,1710.23420,E,34.1,0.0,090320,0,W*50
$GPGGA,150855.00,4808.51700,N,1710.24800,E,2,7,0.057,0.000,M,,*3B
$GPRMC,150855.00,A,4808.51700,N,1710.24800,E,35.2,0.0,090320,0,W*5A
$GPGGA,150856.00,4808.51820,N,1710.26300,E,2,7,0.057,0.000,M,,*3C
$GPRMC,150856.00,A,4808.51820,N,1710.26300,E,35.5,0.0,090320,0,W*5A
$GPGGA,150857.00,4808.51940,N,1710.27740,E,2,7,0.057,0.000,M,,*3B
$GPRMC,150857.00,A,4808.51940,N,1710.27740,E,36.3,0.0,090320,0,W*58
$GPGGA,150858.00,4808.52060,N,1710.29240,E,2,7,0.057,0.000,M,,*37
$GPRMC,150858.00,A,4808.52060,N,1710.29240,E,35.8,0.0,090320,0,W*5C
$GPGGA,150859.00,4808.52180,N,1710.30720,E,2,7,0.076,0.000,M,,*31
$GPRMC,150859.00,A,4808.52180,N,1710.30720,E,36.0,0.0,090320,0,W*52
$GPGGA,150900.00,4808.52300,N,1710.32120,E,2,7,0.076,0.000,M,,*32
$GPRMC,150900.00,A,4808.52300,N,1710.32120,E,36.0,0.0,090320,0,W*51
$GPGGA,150901.00,4808.52480,N,1710.33560,E,2,7,0.076,0.000,M,,*3D
$GPRMC,150901.00,A,4808.52480,N,1710.33560,E,34.9,0.0,090320,0,W*55
$GPGGA,150902.00,4808.52540,N,1710.35000,E,2,7,0.076,0.000,M,,*36
$GPRMC,150902.00,A,4808.52540,N,1710.35000,E,34.6,0.0,090320,0,W*51
$GPGGA,150903.00,4808.52720,N,1710.36380,E,2,7,0.076,0.000,M,,*3B
$GPRMC,150903.00,A,4808.52720,N,1710.36380,E,34.1,0.0,090320,0,W*5B
$GPGGA,150904.00,4808.52780,N,1710.37760,E,2,7,0.057,0.000,M,,*3E
$GPRMC,150904.00,A,4808.52780,N,1710.37760,E,33.4,0.0,090320,0,W*5F
$GPGGA,150905.00,4808.52900,N,1710.39120,E,2,7,0.057,0.000,M,,*35
$GPRMC,150905.00,A,4808.52900,N,1710.39120,E,33.5,0.0,090320,0,W*55
$GPGGA,150906.00,4808.53020,N,1710.40400,E,2,7,0.057,0.000,M,,*35
$GPRMC,150906.00,A,4808.53020,N,1710.40400,E,32.4,0.0,090320,0,W*55
$GPGGA,150907.00,4808.53140,N,1710.41720,E,2,7,0.057,0.000,M,,*33
$GPRMC,150907.00,A,4808.53140,N,1710.41720,E,32.6,0.0,090320,0,W*51
$GPGGA,150908.00,4808.53200,N,1710.43100,E,2,7,0.057,0.000,M,,*3D
$GPRMC,150908.00,A,4808.53200,N,1710.43100,E,33.5,0.0,090320,0,W*5D
$GPGGA,150909.00,4808.53260,N,1710.44480,E,2,7,0.057,0.000,M,,*30
$GPRMC,150909.00,A,4808.53260,N,1710.44480,E,32.5,0.0,090320,0,W*51
$GPGGA,150910.00,4808.53320,N,1710.45840,E,2,7,0.057,0.000,M,,*3C
$GPRMC,150910.00,A,4808.53320,N,1710.45840,E,32.7,0.0,090320,0,W*5F
$GPGGA,150911.00,4808.53380,N,1710.47120,E,2,7,0.057,0.000,M,,*3A
$GPRMC,150911.00,A,4808.53380,N,1710.47120,E,31.9,0.0,090320,0,W*54
$GPGGA,150912.00,4808.53500,N,1710.48500,E,2,7,0.076,0.000,M,,*3D
$GPRMC,150912.00,A,4808.53500,N,1710.48500,E,35.0,0.0,090320,0,W*5D
$GPGGA,150913.00,4808.53740,N,1710.49940,E,2,7,0.076,0.000,M,,*33
$GPRMC,150913.00,A,4808.53740,N,1710.49940,E,34.7,0.0,090320,0,W*55
$GPGGA,150914.00,4808.53860,N,1710.51320,E,2,7,0.076,0.000,M,,*3C
$GPRMC,150914.00,A,4808.53860,N,1710.51320,E,31.6,0.0,090320,0,W*5E
$GPGGA,150915.00,4808.53920,N,1710.52520,E,2,7,0.076,0.000,M,,*3D
$GPRMC,150915.00,A,4808.53920,N,1710.52520,E,31.3,0.0,090320,0,W*5A
$GPGGA,150916.00,4808.54040,N,1710.53780,E,2,7,0.076,0.000,M,,*3F
$GPRMC,150916.00,A,4808.54040,N,1710.53780,E,31.1,0.0,090320,0,W*5A
$GPGGA,150917.00,4808.54160,N,1710.55040,E,2,7,0.076,0.000,M,,*30
$GPRMC,150917.00,A,4808.54160,N,1710.55040,E,31.4,0.0,090320,0,W*50
$GPGGA,150918.00,4808.54280,N,1710.56300,E,2,7,0.076,0.000,M,,*36
$GPRMC,150918.00,A,4808.54280,N,1710.56300,E,30.9,0.0,090320,0,W*5A
$GPGGA,150919.00,4808.54400,N,1710.57500,E,2,7,0.076,0.000,M,,*3E
$GPRMC,150919.00,A,4808.54400,N,1710.57500,E,30.0,0.0,090320,0,W*5B
$GPGGA,150920.00,4808.54520,N,1710.58700,E,2,7,0.076,0.000,M,,*3A
$GPRMC,150920.00,A,4808.54520,N,1710.58700,E,30.4,0.0,090320,0,W*5B
$GPGGA,150921.00,4808.54580,N,1710.59940,E,2,7,0.076,0.000,M,,*3A
$GPRMC,150921.00,A,4808.54580,N,1710.59940,E,31.2,0.0,090320,0,W*5C
$GPGGA,150922.00,4808.54640,N,1710.61220,E,2,7,0.076,0.000,M,,*30
$GPRMC,150922.00,A,4808.54640,N,1710.61220,E,32.0,0.0,090320,0,W*57
$GPGGA,150923.00,4808.54700,N,1710.62480,E,2,7,0.076,0.000,M,,*3B
$GPRMC,150923.00,A,4808.54700,N,1710.62480,E,32.7,0.0,090320,0,W*5B
$GPGGA,150924.00,4808.54760,N,1710.63800,E,2,7,0.057,0.000,M,,*3C
$GPRMC,150924.00,A,4808.54760,N,1710.63800,E,31.5,0.0,090320,0,W*5E
$GPGGA,150925.00,4808.54880,N,1710.65120,E,2,7,0.076,0.000,M,,*32
$GPRMC,150925.00,A,4808.54880,N,1710.65120,E,33.2,0.0,090320,0,W*56
$GPGGA,150926.00,4808.55000,N,1710.66560,E,2,7,0.057,0.000,M,,*30
$GPRMC,150926.00,A,4808.55000,N,1710.66560,E,33.3,0.0,090320,0,W*56
$GPGGA,150927.00,4808.55120,N,1710.67940,E,2,7,0.057,0.000,M,,*3D
$GPRMC,150927.00,A,4808.55120,N,1710.67940,E,33.6,0.0,090320,0,W*5E
$GPGGA,150928.00,4808.55180,N,1710.69380,E,2,7,0.057,0.000,M,,*30
$GPRMC,150928.00,A,4808.55180,N,1710.69380,E,34.0,0.0,090320,0,W*52
$GPGGA,150929.00,4808.55300,N,1710.70760,E,2,7,0.057,0.000,M,,*39
$GPRMC,150929.00,A,4808.55300,N,1710.70760,E,33.9,0.0,090320,0,W*55
$GPGGA,150930.00,4808.55420,N,1710.72140,E,2,7,0.057,0.000,M,,*32
$GPRMC,150930.00,A,4808.55420,N,1710.72140,E,33.8,0.0,090320,0,W*5F
$GPGGA,150931.00,4808.55480,N,1710.73520,E,2,7,0.057,0.000,M,,*3A
$GPRMC,150931.00,A,4808.55480,N,1710.73520,E,34.0,0.0,090320,0,W*58
$GPGGA,150932.00,4808.55660,N,1710.74900,E,2,7,0.057,0.000,M,,*3C
$GPRMC,150932.00,A,4808.55660,N,1710.74900,E,33.5,0.0,090320,0,W*5C
$GPGGA,150933.00,4808.55780,N,1710.76320,E,2,7,0.057,0.000,M,,*38
$GPRMC,150933.00,A,4808.55780,N,1710.76320,E,33.0,0.0,090320,0,W*5D
$GPGGA,150934.00,4808.55900,N,1710.77600,E,2,7,0.076,0.000,M,,*3C
$GPRMC,150934.00,A,4808.55900,N,1710.77600,E,33.0,0.0,090320,0,W*5A
$GPGGA,150935.00,4808.56020,N,1710.78980,E,2,7,0.076,0.000,M,,*3D
$GPRMC,150935.00,A,4808.56020,N,1710.78980,E,33.5,0.0,090320,0,W*5E
$GPGGA,150936.00,4808.56200,N,1710.80360,E,2,7,0.076,0.000,M,,*3D
$GPRMC,150936.00,A,4808.56200,N,1710.80360,E,33.4,0.0,090320,0,W*5F
$GPGGA,150937.00,4808.56260,N,1710.81740,E,2,7,0.076,0.000,M,,*3D
$GPRMC,150937.00,A,4808.56260,N,1710.81740,E,32.7,0.0,090320,0,W*5D
$GPGGA,150938.00,4808.56380,N,1710.83060,E,2,7,0.076,0.000,M,,*3A
$GPRMC,150938.00,A,4808.56380,N,1710.83060,E,32.4,0.0,090320,0,W*59
$GPGGA,150939.00,4808.56500,N,1710.84380,E,2,7,0.076,0.000,M,,*3F
$GPRMC,150939.00,A,4808.56500,N,1710.84380,E,31.3,0.0,090320,0,W*58
$GPGGA,150940.00,4808.56560,N,1710.85700,E,2,7,0.076,0.000,M,,*3A
$GPRMC,150940.00,A,4808.56560,N,1710.85700,E,30.6,0.0,090320,0,W*59
$GPGGA,150941.00,4808.56620,N,1710.87000,E,2,7,0.076,0.000,M,,*39
$GPRMC,150941.00,A,4808.56620,N,1710.87000,E,27.7,0.0,090320,0,W*5D
$GPGGA,150942.00,4808.56680,N,1710.88140,E,2,7,0.076,0.000,M,,*3A
$GPRMC,150942.00,A,4808.56680,N,1710.88140,E,26.1,0.0,090320,0,W*59
$GPGGA,150943.00,4808.56740,N,1710.89220,E,2,7,0.076,0.000,M,,*32
$GPRMC,150943.00,A,4808.56740,N,1710.89220,E,22.6,0.0,090320,0,W*52
$GPGGA,150944.00,4808.56800,N,1710.90020,E,2,7,0.076,0.000,M,,*34
$GPRMC,150944.00,A,4808.56800,N,1710.90020,E,18.4,0.0,090320,0,W*5F
$GPGGA,150945.00,4808.56860,N,1710.90740,E,2,7,0.057,0.000,M,,*31
$GPRMC,150945.00,A,4808.56860,N,1710.90740,E,13.0,0.0,090320,0,W*56
$GPGGA,150946.00,4808.56860,N,1710.91220,E,2,7,0.057,0.000,M,,*30
$GPRMC,150946.00,A,4808.56860,N,1710.91220,E,9.1,0.0,090320,0,W*6D
$GPGGA,150947.00,4808.56920,N,1710.91520,E,2,7,0.057,0.000,M,,*33
$GPRMC,150947.00,A,4808.56920,N,1710.91520,E,5.3,0.0,090320,0,W*60
$GPGGA,150948.00,4808.56920,N,1710.91640,E,2,7,0.057,0.000,M,,*39
$GPRMC,150948.00,A,4808.56920,N,1710.91640,E,3.0,0.0,090320,0,W*6F
$GPGGA,150949.00,4808.56920,N,1710.91760,E,2,7,0.057,0.000,M,,*3B
$GPRMC,150949.00,A,4808.56920,N,1710.91760,E,2.4,0.0,090320,0,W*68
$GPGGA,150950.00,4808.56920,N,1710.91820,E,2,7,0.057,0.000,M,,*38
$GPRMC,150950.00,A,4808.56920,N,1710.91820,E,2.8,0.0,090320,0,W*67
$GPGGA,150951.00,4808.56920,N,1710.91940,E,2,7,0.057,0.000,M,,*3E
$GPRMC,150951.00,A,4808.56920,N,1710.91940,E,3.3,0.0,090320,0,W*6B
$GPGGA,150952.00,4808.56920,N,1710.92100,E,2,7,0.076,0.000,M,,*31
$GPRMC,150952.00,A,4808.56920,N,1710.92100,E,1.4,0.0,090320,0,W*62
$GPGGA,150953.00,4808.56920,N,1710.92120,E,2,7,0.076,0.000,M,,*32
$GPRMC,150953.00,A,4808.56920,N,1710.92120,E,1.4,0.0,090320,0,W*61
$GPGGA,150954.00,4808.56980,N,1710.92100,E,2,7,0.076,0.000,M,,*3D
$GPRMC,150954.00,A,4808.56980,N,1710.92100,E,0.7,0.0,090320,0,W*6C
$GPGGA,150955.00,4808.56980,N,1710.92120,E,2,7,0.076,0.000,M,,*3E
$GPRMC,150955.00,A,4808.56980,N,1710.92120,E,0.7,0.0,090320,0,W*6F
$GPGGA,150956.00,4808.56980,N,1710.92100,E,2,7,0.076,0.000,M,,*3F
$GPRMC,150956.00,A,4808.56980,N,1710.92100,E,0.2,0.0,090320,0,W*6B
$GPGGA,150957.00,4808.56980,N,1710.92120,E,2,7,0.076,0.000,M,,*3C
$GPRMC,150957.00,A,4808.56980,N,1710.92120,E,0.2,0.0,090320,0,W*68
$GPGGA,150958.00,4808.56920,N,1710.92120,E,2,7,0.076,0.000,M,,*39
$GPRMC,150958.00,A,4808.56920,N,1710.92120,E,0.4,0.0,090320,0,W*6B
$GPGGA,150959.00,4808.56920,N,1710.92120,E,2,7,0.076,0.000,M,,*38
$GPRMC,150959.00,A,4808.56920,N,1710.92120,E,0.3,0.0,090320,0,W*6D
$GPGGA,151000.00,4808.56920,N,1710.92120,E,2,7,0.076,0.000,M,,*3C
$GPRMC,151000.00,A,4808.56920,N,1710.92120,E,0.3,0.0,090320,0,W*69
$GPGGA,151001.00,4808.56920,N,1710.92120,E,2,7,0.076,0.000,M,,*3D
$GPRMC,151001.00,A,4808.56920,N,1710.92120,E,0.2,0.0,090320,0,W*69
$GPGGA,151002.00,4808.56920,N,1710.92120,E,2,7,0.076,0.000,M,,*3E
$GPRMC,151002.00,A,4808.56920,N,1710.92120,E,0.1,0.0,090320,0,W*69
$GPGGA,151003.00,4808.56920,N,1710.92120,E,2,7,0.076,0.000,M,,*3F
$GPRMC,151003.00,A,4808.56920,N,1710.92120,E,0.0,0.0,090320,0,W*69
