$GPGGA,144433.669,4808.658,N,01707.886,E,1,12,1.0,0.0,M,0.0,M,,*6A
$GPGSA,A,3,01,02,03,04,05,06,07,08,09,10,11,12,1.0,1.0,1.0*30
$GPRMC,144433.669,A,4808.658,N,01707.886,E,031.1,020.6,100724,000.0,W*79
$GPGGA,144434.669,4808.666,N,01707.891,E,1,12,1.0,0.0,M,0.0,M,,*66
$GPGSA,A,3,01,02,03,04,05,06,07,08,09,10,11,12,1.0,1.0,1.0*30
$GPRMC,144434.669,A,4808.666,N,01707.891,E,031.1,020.6,100724,000.0,W*75
$GPGGA,144435.669,4808.674,N,01707.896,E,1,12,1.0,0.0,M,0.0,M,,*63
$GPGSA,A,3,01,02,03,04,05,06,07,08,09,10,11,12,1.0,1.0,1.0*30
$GPRMC,144435.669,A,4808.674,N,01707.896,E,031.1,020.6,100724,000.0,W*70
$GPGGA,144436.669,4808.683,N,01707.900,E,1,12,1.0,0.0,M,0.0,M,,*66
$GPGSA,A,3,01,02,03,04,05,06,07,08,09,10,11,12,1.0,1.0,1.0*30
$GPRMC,144436.669,A,4808.683,N,01707.900,E,031.1,020.6,100724,000.0,W*75
$GPGGA,144437.669,4808.691,N,01707.905,E,1,12,1.0,0.0,M,0.0,M,,*61
$GPGSA,A,3,01,02,03,04,05,06,07,08,09,10,11,12,1.0,1.0,1.0*30
$GPRMC,144437.669,A,4808.691,N,01707.905,E,031.1,020.6,100724,000.0,W*72
$GPGGA,144438.669,4808.699,N,01707.909,E,1,12,1.0,0.0,M,0.0,M,,*6A
$GPGSA,A,3,01,02,03,04,05,06,07,08,09,10,11,12,1.0,1.0,1.0*30
$GPRMC,144438.669,A,4808.699,N,01707.909,E,031.1,020.6,100724,000.0,W*79
$GPGGA,144439.669,4808.707,N,01707.914,E,1,12,1.0,0.0,M,0.0,M,,*61
$GPGSA,A,3,01,02,03,04,05,06,07,08,09,10,11,12,1.0,1.0,1.0*30
$GPRMC,144439.669,A,4808.707,N,01707.914,E,031.1,020.6,100724,000.0,W*72
$GPGGA,144440.669,4808.715,N,01707.918,E,1,12,1.0,0.0,M,0.0,M,,*60
$GPGSA,A,3,01,02,03,04,05,06,07,08,09,10,11,12,1.0,1.0,1.0*30
$GPRMC,144440.669,A,4808.715,N,01707.918,E,031.1,054.5,100724,000.0,W*73
$GPGGA,144441.669,4808.720,N,01707.929,E,1,12,1.0,0.0,M,0.0,M,,*65
$GPGSA,A,3,01,02,03,04,05,06,07,08,09,10,11,12,1.0,1.0,1.0*30
$GPRMC,144441.669,A,4808.720,N,01707.929,E,031.1,054.5,100724,000.0,W*76
$GPGGA,144442.669,4808.725,N,01707.939,E,1,12,1.0,0.0,M,0.0,M,,*62
$GPGSA,A,3,01,02,03,04,05,06,07,08,09,10,11,12,1.0,1.0,1.0*30
$GPRMC,144442.669,A,4808.725,N,01707.939,E,031.1,054.5,100724,000.0,W*71
$GPGGA,144443.669,4808.730,N,01707.950,E,1,12,1.0,0.0,M,0.0,M,,*68
$GPGSA,A,3,01,02,03,04,05,06,07,08,09,10,11,12,1.0,1.0,1.0*30
$GPRMC,144443.669,A,4808.730,N,01707.950,E,031.1,098.4,100724,000.0,W*7A
$GPGGA,144444.669,4808.729,N,01707.963,E,1,12,1.0,0.0,M,0.0,M,,*67
$GPGSA,A,3,01,02,03,04,05,06,07,08,09,10,11,12,1.0,1.0,1.0*30
$GPRMC,144444.669,A,4808.729,N,01707.963,E,031.1,098.4,100724,000.0,W*75
$GPGGA,144445.669,4808.727,N,01707.976,E,1,12,1.0,0.0,M,0.0,M,,*6C
$GPGSA,A,3,01,02,03,04,05,06,07,08,09,10,11,12,1.0,1.0,1.0*30
$GPRMC,144445.669,A,4808.727,N,01707.976,E,031.1,098.4,100724,000.0,W*7E
$GPGGA,144446.669,4808.726,N,01707.988,E,1,12,1.0,0.0,M,0.0,M,,*6F
$GPGSA,A,3,01,02,03,04,05,06,07,08,09,10,11,12,1.0,1.0,1.0*30
$GPRMC,144446.669,A,4808.726,N,01707.988,E,031.1,098.4,100724,000.0,W*7D
$GPGGA,144447.669,4808.725,N,01708.001,E,1,12,1.0,0.0,M,0.0,M,,*6A
$GPGSA,A,3,01,02,03,04,05,06,07,08,09,10,11,12,1.0,1.0,1.0*30
$GPRMC,144447.669,A,4808.725,N,01708.001,E,031.1,098.4,100724,000.0,W*78
$GPGGA,144448.669,4808.724,N,01708.014,E,1,12,1.0,0.0,M,0.0,M,,*60
$GPGSA,A,3,01,02,03,04,05,06,07,08,09,10,11,12,1.0,1.0,1.0*30
$GPRMC,144448.669,A,4808.724,N,01708.014,E,031.1,085.0,100724,000.0,W*7A
$GPGGA,144449.669,4808.724,N,01708.027,E,1,12,1.0,0.0,M,0.0,M,,*61
$GPGSA,A,3,01,02,03,04,05,06,07,08,09,10,11,12,1.0,1.0,1.0*30
$GPRMC,144449.669,A,4808.724,N,01708.027,E,031.1,085.0,100724,000.0,W*7B
$GPGGA,144450.669,4808.725,N,01708.040,E,1,12,1.0,0.0,M,0.0,M,,*69
$GPGSA,A,3,01,02,03,04,05,06,07,08,09,10,11,12,1.0,1.0,1.0*30
$GPRMC,144450.669,A,4808.725,N,01708.040,E,031.1,085.0,100724,000.0,W*73
$GPGGA,144451.669,4808.726,N,01708.053,E,1,12,1.0,0.0,M,0.0,M,,*69
$GPGSA,A,3,01,02,03,04,05,06,07,08,09,10,11,12,1.0,1.0,1.0*30
$GPRMC,144451.669,A,4808.726,N,01708.053,E,031.1,085.0,100724,000.0,W*73
$GPGGA,144452.669,4808.727,N,01708.066,E,1,12,1.0,0.0,M,0.0,M,,*6D
$GPGSA,A,3,01,02,03,04,05,06,07,08,09,10,11,12,1.0,1.0,1.0*30
$GPRMC,144452.669,A,4808.727,N,01708.066,E,031.1,069.9,100724,000.0,W*7C
$GPGGA,144453.669,4808.730,N,01708.078,E,1,12,1.0,0.0,M,0.0,M,,*65
$GPGSA,A,3,01,02,03,04,05,06,07,08,09,10,11,12,1.0,1.0,1.0*30
$GPRMC,144453.669,A,4808.730,N,01708.078,E,031.1,069.9,100724,000.0,W*74
$GPGGA,144454.669,4808.733,N,01708.090,E,1,12,1.0,0.0,M,0.0,M,,*67
$GPGSA,A,3,01,02,03,04,05,06,07,08,09,10,11,12,1.0,1.0,1.0*30
$GPRMC,144454.669,A,4808.733,N,01708.090,E,031.1,069.9,100724,000.0,W*76
$GPGGA,144455.669,4808.736,N,01708.102,E,1,12,1.0,0.0,M,0.0,M,,*69
$GPGSA,A,3,01,02,03,04,05,06,07,08,09,10,11,12,1.0,1.0,1.0*30
$GPRMC,144455.669,A,4808.736,N,01708.102,E,031.1,069.9,100724,000.0,W*78
$GPGGA,144456.669,4808.739,N,01708.114,E,1,12,1.0,0.0,M,0.0,M,,*62
$GPGSA,A,3,01,02,03,04,05,06,07,08,09,10,11,12,1.0,1.0,1.0*30
$GPRMC,144456.669,A,4808.739,N,01708.114,E,031.1,069.9,100724,000.0,W*73
$GPGGA,144457.669,4808.742,N,01708.126,E,1,12,1.0,0.0,M,0.0,M,,*6E
$GPGSA,A,3,01,02,03,04,05,06,07,08,09,10,11,12,1.0,1.0,1.0*30
$GPRMC,144457.669,A,4808.742,N,01708.126,E,031.1,069.9,100724,000.0,W*7F
$GPGGA,144458.669,4808.744,N,01708.138,E,1,12,1.0,0.0,M,0.0,M,,*68
$GPGSA,A,3,01,02,03,04,05,06,07,08,09,10,11,12,1.0,1.0,1.0*30
$GPRMC,144458.669,A,4808.744,N,01708.138,E,031.1,069.9,100724,000.0,W*79