$GPGGA,091916.060,4808.776,N,01707.618,E,1,12,1.0,0.0,M,0.0,M,,*62
$GPGSA,A,3,01,02,03,04,05,06,07,08,09,10,11,12,1.0,1.0,1.0*30
$GPRMC,091916.060,A,4808.776,N,01707.618,E,038.9,278.7,201124,000.0,W*7A
$GPGGA,091917.060,4808.778,N,01707.602,E,1,12,1.0,0.0,M,0.0,M,,*66
$GPGSA,A,3,01,02,03,04,05,06,07,08,09,10,11,12,1.0,1.0,1.0*30
$GPRMC,091917.060,A,4808.778,N,01707.602,E,038.9,278.7,201124,000.0,W*7E
$GPGGA,091918.060,4808.779,N,01707.586,E,1,12,1.0,0.0,M,0.0,M,,*67
$GPGSA,A,3,01,02,03,04,05,06,07,08,09,10,11,12,1.0,1.0,1.0*30
$GPRMC,091918.060,A,4808.779,N,01707.586,E,038.9,278.7,201124,000.0,W*7F
$GPGGA,091919.060,4808.781,N,01707.570,E,1,12,1.0,0.0,M,0.0,M,,*68
$GPGSA,A,3,01,02,03,04,05,06,07,08,09,10,11,12,1.0,1.0,1.0*30
$GPRMC,091919.060,A,4808.781,N,01707.570,E,038.9,278.7,201124,000.0,W*70
$GPGGA,091920.060,4808.783,N,01707.554,E,1,12,1.0,0.0,M,0.0,M,,*66
$GPGSA,A,3,01,02,03,04,05,06,07,08,09,10,11,12,1.0,1.0,1.0*30
$GPRMC,091920.060,A,4808.783,N,01707.554,E,038.9,278.7,201124,000.0,W*7E
$GPGGA,091921.060,4808.784,N,01707.538,E,1,12,1.0,0.0,M,0.0,M,,*6A
$GPGSA,A,3,01,02,03,04,05,06,07,08,09,10,11,12,1.0,1.0,1.0*30
$GPRMC,091921.060,A,4808.784,N,01707.538,E,038.9,278.7,201124,000.0,W*72
$GPGGA,091922.060,4808.786,N,01707.522,E,1,12,1.0,0.0,M,0.0,M,,*60
$GPGSA,A,3,01,02,03,04,05,06,07,08,09,10,11,12,1.0,1.0,1.0*30
$GPRMC,091922.060,A,4808.786,N,01707.522,E,038.9,278.7,201124,000.0,W*78
$GPGGA,091923.060,4808.787,N,01707.506,E,1,12,1.0,0.0,M,0.0,M,,*66
$GPGSA,A,3,01,02,03,04,05,06,07,08,09,10,11,12,1.0,1.0,1.0*30
$GPRMC,091923.060,A,4808.787,N,01707.506,E,038.9,278.7,201124,000.0,W*7E
$GPGGA,091924.060,4808.789,N,01707.490,E,1,12,1.0,0.0,M,0.0,M,,*61
$GPGSA,A,3,01,02,03,04,05,06,07,08,09,10,11,12,1.0,1.0,1.0*30
$GPRMC,091924.060,A,4808.789,N,01707.490,E,038.9,278.7,201124,000.0,W*79
$GPGGA,091925.060,4808.791,N,01707.474,E,1,12,1.0,0.0,M,0.0,M,,*63
$GPGSA,A,3,01,02,03,04,05,06,07,08,09,10,11,12,1.0,1.0,1.0*30
$GPRMC,091925.060,A,4808.791,N,01707.474,E,038.9,323.1,201124,000.0,W*72
$GPGGA,091926.060,4808.799,N,01707.464,E,1,12,1.0,0.0,M,0.0,M,,*69
$GPGSA,A,3,01,02,03,04,05,06,07,08,09,10,11,12,1.0,1.0,1.0*30
$GPRMC,091926.060,A,4808.799,N,01707.464,E,038.9,323.1,201124,000.0,W*78
$GPGGA,091927.060,4808.808,N,01707.455,E,1,12,1.0,0.0,M,0.0,M,,*6D
$GPGSA,A,3,01,02,03,04,05,06,07,08,09,10,11,12,1.0,1.0,1.0*30
$GPRMC,091927.060,A,4808.808,N,01707.455,E,038.9,013.0,201124,000.0,W*7D
$GPGGA,091928.060,4808.819,N,01707.458,E,1,12,1.0,0.0,M,0.0,M,,*6F
$GPGSA,A,3,01,02,03,04,05,06,07,08,09,10,11,12,1.0,1.0,1.0*30
$GPRMC,091928.060,A,4808.819,N,01707.458,E,038.9,013.0,201124,000.0,W*7F
$GPGGA,091929.060,4808.829,N,01707.462,E,1,12,1.0,0.0,M,0.0,M,,*64
$GPGSA,A,3,01,02,03,04,05,06,07,08,09,10,11,12,1.0,1.0,1.0*30
$GPRMC,091929.060,A,4808.829,N,01707.462,E,038.9,013.0,201124,000.0,W*74
$GPGGA,091930.060,4808.840,N,01707.466,E,1,12,1.0,0.0,M,0.0,M,,*67
$GPGSA,A,3,01,02,03,04,05,06,07,08,09,10,11,12,1.0,1.0,1.0*30
$GPRMC,091930.060,A,4808.840,N,01707.466,E,038.9,013.0,201124,000.0,W*77
$GPGGA,091931.060,4808.850,N,01707.469,E,1,12,1.0,0.0,M,0.0,M,,*68
$GPGSA,A,3,01,02,03,04,05,06,07,08,09,10,11,12,1.0,1.0,1.0*30
$GPRMC,091931.060,A,4808.850,N,01707.469,E,038.9,013.0,201124,000.0,W*78
$GPGGA,091932.060,4808.861,N,01707.473,E,1,12,1.0,0.0,M,0.0,M,,*62
$GPGSA,A,3,01,02,03,04,05,06,07,08,09,10,11,12,1.0,1.0,1.0*30
$GPRMC,091932.060,A,4808.861,N,01707.473,E,038.9,013.0,201124,000.0,W*72
$GPGGA,091933.060,4808.871,N,01707.477,E,1,12,1.0,0.0,M,0.0,M,,*66
$GPGSA,A,3,01,02,03,04,05,06,07,08,09,10,11,12,1.0,1.0,1.0*30
$GPRMC,091933.060,A,4808.871,N,01707.477,E,038.9,013.0,201124,000.0,W*76
$GPGGA,091934.060,4808.882,N,01707.480,E,1,12,1.0,0.0,M,0.0,M,,*65
$GPGSA,A,3,01,02,03,04,05,06,07,08,09,10,11,12,1.0,1.0,1.0*30
$GPRMC,091934.060,A,4808.882,N,01707.480,E,038.9,013.0,201124,000.0,W*75
$GPGGA,091935.060,4808.892,N,01707.484,E,1,12,1.0,0.0,M,0.0,M,,*61
$GPGSA,A,3,01,02,03,04,05,06,07,08,09,10,11,12,1.0,1.0,1.0*30
$GPRMC,091935.060,A,4808.892,N,01707.484,E,038.9,013.0,201124,000.0,W*71
$GPGGA,091936.060,4808.903,N,01707.488,E,1,12,1.0,0.0,M,0.0,M,,*67
$GPGSA,A,3,01,02,03,04,05,06,07,08,09,10,11,12,1.0,1.0,1.0*30
$GPRMC,091936.060,A,4808.903,N,01707.488,E,038.9,013.9,201124,000.0,W*7E
$GPGGA,091937.060,4808.913,N,01707.491,E,1,12,1.0,0.0,M,0.0,M,,*6F
$GPGSA,A,3,01,02,03,04,05,06,07,08,09,10,11,12,1.0,1.0,1.0*30
$GPRMC,091937.060,A,4808.913,N,01707.491,E,038.9,013.9,201124,000.0,W*76
$GPGGA,091938.060,4808.924,N,01707.495,E,1,12,1.0,0.0,M,0.0,M,,*60
$GPGSA,A,3,01,02,03,04,05,06,07,08,09,10,11,12,1.0,1.0,1.0*30
$GPRMC,091938.060,A,4808.924,N,01707.495,E,038.9,013.9,201124,000.0,W*79
$GPGGA,091939.060,4808.934,N,01707.499,E,1,12,1.0,0.0,M,0.0,M,,*6C
$GPGSA,A,3,01,02,03,04,05,06,07,08,09,10,11,12,1.0,1.0,1.0*30
$GPRMC,091939.060,A,4808.934,N,01707.499,E,038.9,013.9,201124,000.0,W*75
$GPGGA,091940.060,4808.945,N,01707.503,E,1,12,1.0,0.0,M,0.0,M,,*66
$GPGSA,A,3,01,02,03,04,05,06,07,08,09,10,11,12,1.0,1.0,1.0*30
$GPRMC,091940.060,A,4808.945,N,01707.503,E,038.9,013.9,201124,000.0,W*7F
$GPGGA,091941.060,4808.955,N,01707.507,E,1,12,1.0,0.0,M,0.0,M,,*62
$GPGSA,A,3,01,02,03,04,05,06,07,08,09,10,11,12,1.0,1.0,1.0*30
$GPRMC,091941.060,A,4808.955,N,01707.507,E,038.9,013.9,201124,000.0,W*7B
$GPGGA,091942.060,4808.966,N,01707.511,E,1,12,1.0,0.0,M,0.0,M,,*66
$GPGSA,A,3,01,02,03,04,05,06,07,08,09,10,11,12,1.0,1.0,1.0*30
$GPRMC,091942.060,A,4808.966,N,01707.511,E,038.9,013.9,201124,000.0,W*7F
$GPGGA,091943.060,4808.976,N,01707.515,E,1,12,1.0,0.0,M,0.0,M,,*62
$GPGSA,A,3,01,02,03,04,05,06,07,08,09,10,11,12,1.0,1.0,1.0*30
$GPRMC,091943.060,A,4808.976,N,01707.515,E,038.9,013.9,201124,000.0,W*7B
$GPGGA,091944.060,4808.986,N,01707.519,E,1,12,1.0,0.0,M,0.0,M,,*66
$GPGSA,A,3,01,02,03,04,05,06,07,08,09,10,11,12,1.0,1.0,1.0*30
$GPRMC,091944.060,A,4808.986,N,01707.519,E,038.9,013.9,201124,000.0,W*7F
$GPGGA,091945.060,4808.997,N,01707.523,E,1,12,1.0,0.0,M,0.0,M,,*6E
$GPGSA,A,3,01,02,03,04,05,06,07,08,09,10,11,12,1.0,1.0,1.0*30
$GPRMC,091945.060,A,4808.997,N,01707.523,E,038.9,013.9,201124,000.0,W*77
$GPGGA,091946.060,4809.007,N,01707.526,E,1,12,1.0,0.0,M,0.0,M,,*69
$GPGSA,A,3,01,02,03,04,05,06,07,08,09,10,11,12,1.0,1.0,1.0*30
$GPRMC,091946.060,A,4809.007,N,01707.526,E,038.9,013.9,201124,000.0,W*70
$GPGGA,091947.060,4809.018,N,01707.530,E,1,12,1.0,0.0,M,0.0,M,,*61
$GPGSA,A,3,01,02,03,04,05,06,07,08,09,10,11,12,1.0,1.0,1.0*30
$GPRMC,091947.060,A,4809.018,N,01707.530,E,038.9,010.1,201124,000.0,W*73
$GPGGA,091948.060,4809.029,N,01707.533,E,1,12,1.0,0.0,M,0.0,M,,*6F
$GPGSA,A,3,01,02,03,04,05,06,07,08,09,10,11,12,1.0,1.0,1.0*30
$GPRMC,091948.060,A,4809.029,N,01707.533,E,038.9,010.1,201124,000.0,W*7D
$GPGGA,091949.060,4809.039,N,01707.536,E,1,12,1.0,0.0,M,0.0,M,,*6A
$GPGSA,A,3,01,02,03,04,05,06,07,08,09,10,11,12,1.0,1.0,1.0*30
$GPRMC,091949.060,A,4809.039,N,01707.536,E,038.9,010.1,201124,000.0,W*78
$GPGGA,091950.060,4809.050,N,01707.539,E,1,12,1.0,0.0,M,0.0,M,,*62
$GPGSA,A,3,01,02,03,04,05,06,07,08,09,10,11,12,1.0,1.0,1.0*30
$GPRMC,091950.060,A,4809.050,N,01707.539,E,038.9,010.1,201124,000.0,W*70
$GPGGA,091951.060,4809.060,N,01707.542,E,1,12,1.0,0.0,M,0.0,M,,*6C
$GPGSA,A,3,01,02,03,04,05,06,07,08,09,10,11,12,1.0,1.0,1.0*30
$GPRMC,091951.060,A,4809.060,N,01707.542,E,038.9,010.1,201124,000.0,W*7E
$GPGGA,091952.060,4809.071,N,01707.544,E,1,12,1.0,0.0,M,0.0,M,,*69
$GPGSA,A,3,01,02,03,04,05,06,07,08,09,10,11,12,1.0,1.0,1.0*30
$GPRMC,091952.060,A,4809.071,N,01707.544,E,038.9,010.1,201124,000.0,W*7B
$GPGGA,091953.060,4809.082,N,01707.547,E,1,12,1.0,0.0,M,0.0,M,,*67
$GPGSA,A,3,01,02,03,04,05,06,07,08,09,10,11,12,1.0,1.0,1.0*30
$GPRMC,091953.060,A,4809.082,N,01707.547,E,038.9,010.1,201124,000.0,W*75
$GPGGA,091954.060,4809.092,N,01707.550,E,1,12,1.0,0.0,M,0.0,M,,*67
$GPGSA,A,3,01,02,03,04,05,06,07,08,09,10,11,12,1.0,1.0,1.0*30
$GPRMC,091954.060,A,4809.092,N,01707.550,E,038.9,010.1,201124,000.0,W*75
$GPGGA,091955.060,4809.103,N,01707.553,E,1,12,1.0,0.0,M,0.0,M,,*6C
$GPGSA,A,3,01,02,03,04,05,06,07,08,09,10,11,12,1.0,1.0,1.0*30
$GPRMC,091955.060,A,4809.103,N,01707.553,E,038.9,010.1,201124,000.0,W*7E
$GPGGA,091956.060,4809.114,N,01707.556,E,1,12,1.0,0.0,M,0.0,M,,*6C
$GPGSA,A,3,01,02,03,04,05,06,07,08,09,10,11,12,1.0,1.0,1.0*30
$GPRMC,091956.060,A,4809.114,N,01707.556,E,038.9,359.5,201124,000.0,W*74
$GPGGA,091957.060,4809.124,N,01707.556,E,1,12,1.0,0.0,M,0.0,M,,*6E
$GPGSA,A,3,01,02,03,04,05,06,07,08,09,10,11,12,1.0,1.0,1.0*30
$GPRMC,091957.060,A,4809.124,N,01707.556,E,038.9,359.5,201124,000.0,W*76
$GPGGA,091958.060,4809.135,N,01707.556,E,1,12,1.0,0.0,M,0.0,M,,*61
$GPGSA,A,3,01,02,03,04,05,06,07,08,09,10,11,12,1.0,1.0,1.0*30
$GPRMC,091958.060,A,4809.135,N,01707.556,E,038.9,359.5,201124,000.0,W*79
$GPGGA,091959.060,4809.146,N,01707.555,E,1,12,1.0,0.0,M,0.0,M,,*67
$GPGSA,A,3,01,02,03,04,05,06,07,08,09,10,11,12,1.0,1.0,1.0*30
$GPRMC,091959.060,A,4809.146,N,01707.555,E,038.9,359.5,201124,000.0,W*7F
$GPGGA,092000.060,4809.157,N,01707.555,E,1,12,1.0,0.0,M,0.0,M,,*61
$GPGSA,A,3,01,02,03,04,05,06,07,08,09,10,11,12,1.0,1.0,1.0*30
$GPRMC,092000.060,A,4809.157,N,01707.555,E,038.9,359.5,201124,000.0,W*79
$GPGGA,092001.060,4809.167,N,01707.555,E,1,12,1.0,0.0,M,0.0,M,,*63
$GPGSA,A,3,01,02,03,04,05,06,07,08,09,10,11,12,1.0,1.0,1.0*30
$GPRMC,092001.060,A,4809.167,N,01707.555,E,038.9,359.5,201124,000.0,W*7B
$GPGGA,092002.060,4809.178,N,01707.555,E,1,12,1.0,0.0,M,0.0,M,,*6E
$GPGSA,A,3,01,02,03,04,05,06,07,08,09,10,11,12,1.0,1.0,1.0*30
$GPRMC,092002.060,A,4809.178,N,01707.555,E,038.9,351.9,201124,000.0,W*72
$GPGGA,092003.060,4809.189,N,01707.553,E,1,12,1.0,0.0,M,0.0,M,,*67
$GPGSA,A,3,01,02,03,04,05,06,07,08,09,10,11,12,1.0,1.0,1.0*30
$GPRMC,092003.060,A,4809.189,N,01707.553,E,038.9,351.9,201124,000.0,W*7B
$GPGGA,092004.060,4809.200,N,01707.550,E,1,12,1.0,0.0,M,0.0,M,,*61
$GPGSA,A,3,01,02,03,04,05,06,07,08,09,10,11,12,1.0,1.0,1.0*30
$GPRMC,092004.060,A,4809.200,N,01707.550,E,038.9,351.9,201124,000.0,W*7D
$GPGGA,092005.060,4809.210,N,01707.548,E,1,12,1.0,0.0,M,0.0,M,,*68
$GPGSA,A,3,01,02,03,04,05,06,07,08,09,10,11,12,1.0,1.0,1.0*30
$GPRMC,092005.060,A,4809.210,N,01707.548,E,038.9,351.9,201124,000.0,W*74
$GPGGA,092006.060,4809.221,N,01707.546,E,1,12,1.0,0.0,M,0.0,M,,*67
$GPGSA,A,3,01,02,03,04,05,06,07,08,09,10,11,12,1.0,1.0,1.0*30
$GPRMC,092006.060,A,4809.221,N,01707.546,E,038.9,351.9,201124,000.0,W*7B
$GPGGA,092007.060,4809.232,N,01707.544,E,1,12,1.0,0.0,M,0.0,M,,*66
$GPGSA,A,3,01,02,03,04,05,06,07,08,09,10,11,12,1.0,1.0,1.0*30
$GPRMC,092007.060,A,4809.232,N,01707.544,E,038.9,351.9,201124,000.0,W*7A
$GPGGA,092008.060,4809.242,N,01707.541,E,1,12,1.0,0.0,M,0.0,M,,*6B
$GPGSA,A,3,01,02,03,04,05,06,07,08,09,10,11,12,1.0,1.0,1.0*30
$GPRMC,092008.060,A,4809.242,N,01707.541,E,038.9,351.9,201124,000.0,W*77
$GPGGA,092009.060,4809.253,N,01707.539,E,1,12,1.0,0.0,M,0.0,M,,*65
$GPGSA,A,3,01,02,03,04,05,06,07,08,09,10,11,12,1.0,1.0,1.0*30
$GPRMC,092009.060,A,4809.253,N,01707.539,E,038.9,346.8,201124,000.0,W*7E
$GPGGA,092010.060,4809.264,N,01707.535,E,1,12,1.0,0.0,M,0.0,M,,*65
$GPGSA,A,3,01,02,03,04,05,06,07,08,09,10,11,12,1.0,1.0,1.0*30
$GPRMC,092010.060,A,4809.264,N,01707.535,E,038.9,346.8,201124,000.0,W*7E
$GPGGA,092011.060,4809.274,N,01707.532,E,1,12,1.0,0.0,M,0.0,M,,*62
$GPGSA,A,3,01,02,03,04,05,06,07,08,09,10,11,12,1.0,1.0,1.0*30
$GPRMC,092011.060,A,4809.274,N,01707.532,E,038.9,346.8,201124,000.0,W*79
$GPGGA,092012.060,4809.285,N,01707.528,E,1,12,1.0,0.0,M,0.0,M,,*64
$GPGSA,A,3,01,02,03,04,05,06,07,08,09,10,11,12,1.0,1.0,1.0*30
$GPRMC,092012.060,A,4809.285,N,01707.528,E,038.9,346.8,201124,000.0,W*7F
$GPGGA,092013.060,4809.295,N,01707.524,E,1,12,1.0,0.0,M,0.0,M,,*68
$GPGSA,A,3,01,02,03,04,05,06,07,08,09,10,11,12,1.0,1.0,1.0*30
$GPRMC,092013.060,A,4809.295,N,01707.524,E,038.9,346.8,201124,000.0,W*73
$GPGGA,092014.060,4809.306,N,01707.520,E,1,12,1.0,0.0,M,0.0,M,,*60
$GPGSA,A,3,01,02,03,04,05,06,07,08,09,10,11,12,1.0,1.0,1.0*30
$GPRMC,092014.060,A,4809.306,N,01707.520,E,038.9,347.2,201124,000.0,W*70
$GPGGA,092015.060,4809.316,N,01707.517,E,1,12,1.0,0.0,M,0.0,M,,*64
$GPGSA,A,3,01,02,03,04,05,06,07,08,09,10,11,12,1.0,1.0,1.0*30
$GPRMC,092015.060,A,4809.316,N,01707.517,E,038.9,347.2,201124,000.0,W*74
$GPGGA,092016.060,4809.327,N,01707.513,E,1,12,1.0,0.0,M,0.0,M,,*61
$GPGSA,A,3,01,02,03,04,05,06,07,08,09,10,11,12,1.0,1.0,1.0*30
$GPRMC,092016.060,A,4809.327,N,01707.513,E,038.9,347.2,201124,000.0,W*71
$GPGGA,092017.060,4809.337,N,01707.510,E,1,12,1.0,0.0,M,0.0,M,,*62
$GPGSA,A,3,01,02,03,04,05,06,07,08,09,10,11,12,1.0,1.0,1.0*30
$GPRMC,092017.060,A,4809.337,N,01707.510,E,038.9,328.0,201124,000.0,W*79
$GPGGA,092018.060,4809.346,N,01707.501,E,1,12,1.0,0.0,M,0.0,M,,*6B
$GPGSA,A,3,01,02,03,04,05,06,07,08,09,10,11,12,1.0,1.0,1.0*30
$GPRMC,092018.060,A,4809.346,N,01707.501,E,038.9,308.1,201124,000.0,W*73
$GPGGA,092019.060,4809.353,N,01707.488,E,1,12,1.0,0.0,M,0.0,M,,*6E
$GPGSA,A,3,01,02,03,04,05,06,07,08,09,10,11,12,1.0,1.0,1.0*30
$GPRMC,092019.060,A,4809.353,N,01707.488,E,038.9,297.1,201124,000.0,W*71
$GPGGA,092020.060,4809.358,N,01707.474,E,1,12,1.0,0.0,M,0.0,M,,*6C
$GPGSA,A,3,01,02,03,04,05,06,07,08,09,10,11,12,1.0,1.0,1.0*30
$GPRMC,092020.060,A,4809.358,N,01707.474,E,038.9,297.1,201124,000.0,W*73
$GPGGA,092021.060,4809.363,N,01707.460,E,1,12,1.0,0.0,M,0.0,M,,*60
$GPGSA,A,3,01,02,03,04,05,06,07,08,09,10,11,12,1.0,1.0,1.0*30
$GPRMC,092021.060,A,4809.363,N,01707.460,E,038.9,297.1,201124,000.0,W*7F
$GPGGA,092022.060,4809.368,N,01707.445,E,1,12,1.0,0.0,M,0.0,M,,*6F
$GPGSA,A,3,01,02,03,04,05,06,07,08,09,10,11,12,1.0,1.0,1.0*30
$GPRMC,092022.060,A,4809.368,N,01707.445,E,038.9,297.1,201124,000.0,W*70
$GPGGA,092023.060,4809.373,N,01707.431,E,1,12,1.0,0.0,M,0.0,M,,*67
$GPGSA,A,3,01,02,03,04,05,06,07,08,09,10,11,12,1.0,1.0,1.0*30
$GPRMC,092023.060,A,4809.373,N,01707.431,E,038.9,297.1,201124,000.0,W*78
$GPGGA,092024.060,4809.378,N,01707.416,E,1,12,1.0,0.0,M,0.0,M,,*6E
$GPGSA,A,3,01,02,03,04,05,06,07,08,09,10,11,12,1.0,1.0,1.0*30
$GPRMC,092024.060,A,4809.378,N,01707.416,E,038.9,297.1,201124,000.0,W*71
$GPGGA,092025.060,4809.382,N,01707.402,E,1,12,1.0,0.0,M,0.0,M,,*6F
$GPGSA,A,3,01,02,03,04,05,06,07,08,09,10,11,12,1.0,1.0,1.0*30
$GPRMC,092025.060,A,4809.382,N,01707.402,E,038.9,293.3,201124,000.0,W*76
$GPGGA,092026.060,4809.387,N,01707.387,E,1,12,1.0,0.0,M,0.0,M,,*63
$GPGSA,A,3,01,02,03,04,05,06,07,08,09,10,11,12,1.0,1.0,1.0*30
$GPRMC,092026.060,A,4809.387,N,01707.387,E,038.9,293.3,201124,000.0,W*7A
$GPGGA,092027.060,4809.391,N,01707.372,E,1,12,1.0,0.0,M,0.0,M,,*6F
$GPGSA,A,3,01,02,03,04,05,06,07,08,09,10,11,12,1.0,1.0,1.0*30
$GPRMC,092027.060,A,4809.391,N,01707.372,E,038.9,293.3,201124,000.0,W*76
$GPGGA,092028.060,4809.395,N,01707.357,E,1,12,1.0,0.0,M,0.0,M,,*63
$GPGSA,A,3,01,02,03,04,05,06,07,08,09,10,11,12,1.0,1.0,1.0*30
$GPRMC,092028.060,A,4809.395,N,01707.357,E,038.9,293.3,201124,000.0,W*7A
$GPGGA,092029.060,4809.400,N,01707.343,E,1,12,1.0,0.0,M,0.0,M,,*6C
$GPGSA,A,3,01,02,03,04,05,06,07,08,09,10,11,12,1.0,1.0,1.0*30
$GPRMC,092029.060,A,4809.400,N,01707.343,E,038.9,293.3,201124,000.0,W*75
$GPGGA,092030.060,4809.404,N,01707.328,E,1,12,1.0,0.0,M,0.0,M,,*6D
$GPGSA,A,3,01,02,03,04,05,06,07,08,09,10,11,12,1.0,1.0,1.0*30
$GPRMC,092030.060,A,4809.404,N,01707.328,E,038.9,293.3,201124,000.0,W*74
$GPGGA,092031.060,4809.408,N,01707.313,E,1,12,1.0,0.0,M,0.0,M,,*68
$GPGSA,A,3,01,02,03,04,05,06,07,08,09,10,11,12,1.0,1.0,1.0*30
$GPRMC,092031.060,A,4809.408,N,01707.313,E,038.9,296.3,201124,000.0,W*74
$GPGGA,092032.060,4809.413,N,01707.298,E,1,12,1.0,0.0,M,0.0,M,,*63
$GPGSA,A,3,01,02,03,04,05,06,07,08,09,10,11,12,1.0,1.0,1.0*30
$GPRMC,092032.060,A,4809.413,N,01707.298,E,038.9,296.3,201124,000.0,W*7F
$GPGGA,092033.060,4809.418,N,01707.284,E,1,12,1.0,0.0,M,0.0,M,,*64
$GPGSA,A,3,01,02,03,04,05,06,07,08,09,10,11,12,1.0,1.0,1.0*30
$GPRMC,092033.060,A,4809.418,N,01707.284,E,038.9,296.3,201124,000.0,W*78
